[
  {
    "id": "BTS_GCG_001",
    "name": "Tram GÒ CÔNG 1",
    "type": "2G",
    "lat": 10.358192,
    "lng": 106.645368,
    "province": "GÒ CÔNG",
    "district": "Quan 11",
    "signalStrength": -94,
    "traffic": 405,
    "subscribers": 2734,
    "status": "warning",
    "uptime": 99.02,
    "lastUpdate": "2026-01-28T07:51:09.990Z",
    "alarms": 3,
    "capacity": 42
  },
  {
    "id": "BTS_CTH_002",
    "name": "Tram CHÂU THÀNH 2",
    "type": "2G",
    "lat": 10.437811,
    "lng": 106.191887,
    "province": "CHÂU THÀNH",
    "district": "Quan 9",
    "signalStrength": -86,
    "traffic": 430,
    "subscribers": 1854,
    "status": "active",
    "uptime": 95.04,
    "lastUpdate": "2026-01-28T07:30:37.127Z",
    "alarms": 2,
    "capacity": 53
  },
  {
    "id": "BTS_TBH_003",
    "name": "Tram THANH BÌNH 3",
    "type": "4G",
    "lat": 10.543731,
    "lng": 105.596875,
    "province": "THANH BÌNH",
    "district": "Quan 8",
    "signalStrength": -85,
    "traffic": 406,
    "subscribers": 1416,
    "status": "critical",
    "uptime": 95.72,
    "lastUpdate": "2026-01-28T08:05:58.213Z",
    "alarms": 1,
    "capacity": 59
  },
  {
    "id": "BTS_CBE_004",
    "name": "Tram CÁI BÈ 4",
    "type": "5G",
    "lat": 10.379074,
    "lng": 105.958941,
    "province": "CÁI BÈ",
    "district": "Quan 10",
    "signalStrength": -64,
    "traffic": 186,
    "subscribers": 601,
    "status": "offline",
    "uptime": 97.51,
    "lastUpdate": "2026-01-28T07:51:53.877Z",
    "alarms": 1,
    "capacity": 62
  },
  {
    "id": "BTS_TPC_005",
    "name": "Tram TÂN PHƯỚC 5",
    "type": "2G",
    "lat": 10.533765,
    "lng": 106.146888,
    "province": "TÂN PHƯỚC",
    "district": "Quan 7",
    "signalStrength": -91,
    "traffic": 336,
    "subscribers": 4316,
    "status": "active",
    "uptime": 98.67,
    "lastUpdate": "2026-01-28T07:36:43.375Z",
    "alarms": 2,
    "capacity": 50
  },
  {
    "id": "BTS_CGO_006",
    "name": "Tram CHỢ GẠO 6",
    "type": "3G",
    "lat": 10.452231,
    "lng": 106.454331,
    "province": "CHỢ GẠO",
    "district": "Quan 4",
    "signalStrength": -81,
    "traffic": 297,
    "subscribers": 4540,
    "status": "active",
    "uptime": 98.39,
    "lastUpdate": "2026-01-28T07:14:28.326Z",
    "alarms": 4,
    "capacity": 53
  },
  {
    "id": "BTS_GCG_007",
    "name": "Tram GÒ CÔNG 7",
    "type": "4G",
    "lat": 10.346377,
    "lng": 106.715559,
    "province": "GÒ CÔNG",
    "district": "Quan 1",
    "signalStrength": -73,
    "traffic": 254,
    "subscribers": 4459,
    "status": "active",
    "uptime": 99.53,
    "lastUpdate": "2026-01-28T07:51:03.042Z",
    "alarms": 0,
    "capacity": 48
  },
  {
    "id": "BTS_GCG_008",
    "name": "Tram GÒ CÔNG 8",
    "type": "5G",
    "lat": 10.278607,
    "lng": 106.615591,
    "province": "GÒ CÔNG",
    "district": "Quan 6",
    "signalStrength": -66,
    "traffic": 73,
    "subscribers": 1969,
    "status": "active",
    "uptime": 98.43,
    "lastUpdate": "2026-01-28T08:04:24.738Z",
    "alarms": 2,
    "capacity": 60
  },
  {
    "id": "BTS_GCG_009",
    "name": "Tram GÒ CÔNG 9",
    "type": "3G",
    "lat": 10.485586,
    "lng": 106.667301,
    "province": "GÒ CÔNG",
    "district": "Quan 10",
    "signalStrength": -77,
    "traffic": 124,
    "subscribers": 3877,
    "status": "offline",
    "uptime": 98.3,
    "lastUpdate": "2026-01-28T07:12:05.649Z",
    "alarms": 4,
    "capacity": 40
  },
  {
    "id": "BTS_CLH_010",
    "name": "Tram CAO LÃNH 10",
    "type": "4G",
    "lat": 10.644544,
    "lng": 105.670617,
    "province": "CAO LÃNH",
    "district": "Quan 4",
    "signalStrength": -76,
    "traffic": 152,
    "subscribers": 4192,
    "status": "active",
    "uptime": 95.82,
    "lastUpdate": "2026-01-28T08:10:30.613Z",
    "alarms": 3,
    "capacity": 65
  },
  {
    "id": "BTS_HNU_011",
    "name": "Tram HỒNG NGỰ 11",
    "type": "3G",
    "lat": 10.927526,
    "lng": 105.404461,
    "province": "HỒNG NGỰ",
    "district": "Quan 12",
    "signalStrength": -81,
    "traffic": 395,
    "subscribers": 3113,
    "status": "active",
    "uptime": 98.03,
    "lastUpdate": "2026-01-28T07:15:23.661Z",
    "alarms": 2,
    "capacity": 42
  },
  {
    "id": "BTS_MTO_012",
    "name": "Tram MỸ THO 12",
    "type": "4G",
    "lat": 10.320063,
    "lng": 106.280422,
    "province": "MỸ THO",
    "district": "Quan 12",
    "signalStrength": -65,
    "traffic": 381,
    "subscribers": 853,
    "status": "warning",
    "uptime": 98.72,
    "lastUpdate": "2026-01-28T07:55:55.863Z",
    "alarms": 1,
    "capacity": 48
  },
  {
    "id": "BTS_GCT_013",
    "name": "Tram GÒ CÔNG TÂY 13",
    "type": "5G",
    "lat": 10.223247,
    "lng": 106.791308,
    "province": "GÒ CÔNG TÂY",
    "district": "Quan 4",
    "signalStrength": -52,
    "traffic": 477,
    "subscribers": 1114,
    "status": "warning",
    "uptime": 95.57,
    "lastUpdate": "2026-01-28T07:44:18.584Z",
    "alarms": 3,
    "capacity": 58
  },
  {
    "id": "BTS_CGO_014",
    "name": "Tram CHỢ GẠO 14",
    "type": "2G",
    "lat": 10.471487,
    "lng": 106.365164,
    "province": "CHỢ GẠO",
    "district": "Quan 6",
    "signalStrength": -74,
    "traffic": 130,
    "subscribers": 4907,
    "status": "active",
    "uptime": 97.42,
    "lastUpdate": "2026-01-28T07:19:03.237Z",
    "alarms": 2,
    "capacity": 64
  },
  {
    "id": "BTS_TMI_015",
    "name": "Tram THÁP MƯỜI 15",
    "type": "4G",
    "lat": 10.40928,
    "lng": 105.82405,
    "province": "THÁP MƯỜI",
    "district": "Quan 6",
    "signalStrength": -56,
    "traffic": 64,
    "subscribers": 4121,
    "status": "active",
    "uptime": 95.75,
    "lastUpdate": "2026-01-28T07:31:47.671Z",
    "alarms": 2,
    "capacity": 62
  },
  {
    "id": "BTS_CGO_016",
    "name": "Tram CHỢ GẠO 16",
    "type": "5G",
    "lat": 10.352178,
    "lng": 106.445879,
    "province": "CHỢ GẠO",
    "district": "Quan 3",
    "signalStrength": -59,
    "traffic": 522,
    "subscribers": 3980,
    "status": "active",
    "uptime": 99.39,
    "lastUpdate": "2026-01-28T07:29:48.336Z",
    "alarms": 3,
    "capacity": 44
  },
  {
    "id": "BTS_CGO_017",
    "name": "Tram CHỢ GẠO 17",
    "type": "2G",
    "lat": 10.44663,
    "lng": 106.346577,
    "province": "CHỢ GẠO",
    "district": "Quan 4",
    "signalStrength": -81,
    "traffic": 126,
    "subscribers": 2046,
    "status": "offline",
    "uptime": 95.34,
    "lastUpdate": "2026-01-28T07:20:47.330Z",
    "alarms": 0,
    "capacity": 41
  },
  {
    "id": "BTS_MTH_018",
    "name": "Tram MỸ THỌ 18",
    "type": "2G",
    "lat": 10.416537,
    "lng": 105.789701,
    "province": "MỸ THỌ",
    "district": "Quan 11",
    "signalStrength": -73,
    "traffic": 151,
    "subscribers": 4043,
    "status": "active",
    "uptime": 99.53,
    "lastUpdate": "2026-01-28T07:37:29.830Z",
    "alarms": 1,
    "capacity": 74
  },
  {
    "id": "BTS_TNG_019",
    "name": "Tram TAM NÔNG 19",
    "type": "5G",
    "lat": 10.798652,
    "lng": 105.51603,
    "province": "TAM NÔNG",
    "district": "Quan 6",
    "signalStrength": -62,
    "traffic": 443,
    "subscribers": 5399,
    "status": "active",
    "uptime": 99.96,
    "lastUpdate": "2026-01-28T07:35:50.518Z",
    "alarms": 3,
    "capacity": 63
  },
  {
    "id": "BTS_CBE_020",
    "name": "Tram CÁI BÈ 20",
    "type": "5G",
    "lat": 10.359762,
    "lng": 105.956627,
    "province": "CÁI BÈ",
    "district": "Quan 12",
    "signalStrength": -75,
    "traffic": 494,
    "subscribers": 4301,
    "status": "warning",
    "uptime": 95.83,
    "lastUpdate": "2026-01-28T08:04:30.961Z",
    "alarms": 2,
    "capacity": 78
  },
  {
    "id": "BTS_TMI_021",
    "name": "Tram THÁP MƯỜI 21",
    "type": "2G",
    "lat": 10.559483,
    "lng": 105.696213,
    "province": "THÁP MƯỜI",
    "district": "Quan 1",
    "signalStrength": -93,
    "traffic": 202,
    "subscribers": 3036,
    "status": "active",
    "uptime": 97.56,
    "lastUpdate": "2026-01-28T07:21:50.893Z",
    "alarms": 2,
    "capacity": 70
  },
  {
    "id": "BTS_SDC_022",
    "name": "Tram SA ĐÉC 22",
    "type": "2G",
    "lat": 10.182891,
    "lng": 105.802064,
    "province": "SA ĐÉC",
    "district": "Quan 10",
    "signalStrength": -75,
    "traffic": 545,
    "subscribers": 3368,
    "status": "warning",
    "uptime": 95.37,
    "lastUpdate": "2026-01-28T08:09:50.573Z",
    "alarms": 1,
    "capacity": 42
  },
  {
    "id": "BTS_SDC_023",
    "name": "Tram SA ĐÉC 23",
    "type": "3G",
    "lat": 10.172248,
    "lng": 105.668403,
    "province": "SA ĐÉC",
    "district": "Quan 9",
    "signalStrength": -68,
    "traffic": 253,
    "subscribers": 3743,
    "status": "active",
    "uptime": 97.8,
    "lastUpdate": "2026-01-28T07:28:08.292Z",
    "alarms": 2,
    "capacity": 50
  },
  {
    "id": "BTS_MTO_024",
    "name": "Tram MỸ THO 24",
    "type": "5G",
    "lat": 10.37042,
    "lng": 106.255101,
    "province": "MỸ THO",
    "district": "Quan 2",
    "signalStrength": -66,
    "traffic": 414,
    "subscribers": 3491,
    "status": "active",
    "uptime": 97.7,
    "lastUpdate": "2026-01-28T07:38:34.550Z",
    "alarms": 2,
    "capacity": 65
  },
  {
    "id": "BTS_SDC_025",
    "name": "Tram SA ĐÉC 25",
    "type": "5G",
    "lat": 10.356893,
    "lng": 105.746864,
    "province": "SA ĐÉC",
    "district": "Quan 9",
    "signalStrength": -64,
    "traffic": 119,
    "subscribers": 1003,
    "status": "active",
    "uptime": 97.95,
    "lastUpdate": "2026-01-28T07:11:19.515Z",
    "alarms": 3,
    "capacity": 46
  },
  {
    "id": "BTS_CTH_026",
    "name": "Tram CHÂU THÀNH 26",
    "type": "2G",
    "lat": 10.369963,
    "lng": 106.343793,
    "province": "CHÂU THÀNH",
    "district": "Quan 12",
    "signalStrength": -76,
    "traffic": 206,
    "subscribers": 743,
    "status": "active",
    "uptime": 97.03,
    "lastUpdate": "2026-01-28T07:54:24.259Z",
    "alarms": 3,
    "capacity": 76
  },
  {
    "id": "BTS_GCT_027",
    "name": "Tram GÒ CÔNG TÂY 27",
    "type": "2G",
    "lat": 10.223318,
    "lng": 106.787663,
    "province": "GÒ CÔNG TÂY",
    "district": "Quan 11",
    "signalStrength": -95,
    "traffic": 414,
    "subscribers": 4911,
    "status": "active",
    "uptime": 95.89,
    "lastUpdate": "2026-01-28T07:26:05.515Z",
    "alarms": 4,
    "capacity": 69
  },
  {
    "id": "BTS_TNG_028",
    "name": "Tram TAM NÔNG 28",
    "type": "3G",
    "lat": 10.723683,
    "lng": 105.663628,
    "province": "TAM NÔNG",
    "district": "Quan 2",
    "signalStrength": -86,
    "traffic": 320,
    "subscribers": 3785,
    "status": "warning",
    "uptime": 95.15,
    "lastUpdate": "2026-01-28T07:36:25.573Z",
    "alarms": 1,
    "capacity": 44
  },
  {
    "id": "BTS_CBE_029",
    "name": "Tram CÁI BÈ 29",
    "type": "3G",
    "lat": 10.321205,
    "lng": 105.859123,
    "province": "CÁI BÈ",
    "district": "Quan 4",
    "signalStrength": -79,
    "traffic": 480,
    "subscribers": 3787,
    "status": "warning",
    "uptime": 97.38,
    "lastUpdate": "2026-01-28T07:31:29.072Z",
    "alarms": 0,
    "capacity": 47
  },
  {
    "id": "BTS_TNG_030",
    "name": "Tram TAM NÔNG 30",
    "type": "5G",
    "lat": 10.757144,
    "lng": 105.656219,
    "province": "TAM NÔNG",
    "district": "Quan 10",
    "signalStrength": -80,
    "traffic": 414,
    "subscribers": 3637,
    "status": "active",
    "uptime": 98.96,
    "lastUpdate": "2026-01-28T07:46:55.825Z",
    "alarms": 1,
    "capacity": 64
  },
  {
    "id": "BTS_SDC_031",
    "name": "Tram SA ĐÉC 31",
    "type": "2G",
    "lat": 10.262883,
    "lng": 105.766574,
    "province": "SA ĐÉC",
    "district": "Quan 9",
    "signalStrength": -79,
    "traffic": 525,
    "subscribers": 774,
    "status": "active",
    "uptime": 96.32,
    "lastUpdate": "2026-01-28T07:57:05.427Z",
    "alarms": 0,
    "capacity": 47
  },
  {
    "id": "BTS_CLY_032",
    "name": "Tram CAI LẬY 32",
    "type": "3G",
    "lat": 10.461789,
    "lng": 106.069995,
    "province": "CAI LẬY",
    "district": "Quan 4",
    "signalStrength": -87,
    "traffic": 301,
    "subscribers": 3344,
    "status": "warning",
    "uptime": 96.68,
    "lastUpdate": "2026-01-28T08:08:51.692Z",
    "alarms": 1,
    "capacity": 73
  },
  {
    "id": "BTS_MTO_033",
    "name": "Tram MỸ THO 33",
    "type": "4G",
    "lat": 10.383147,
    "lng": 106.345897,
    "province": "MỸ THO",
    "district": "Quan 8",
    "signalStrength": -83,
    "traffic": 549,
    "subscribers": 1049,
    "status": "warning",
    "uptime": 96.22,
    "lastUpdate": "2026-01-28T07:39:43.536Z",
    "alarms": 4,
    "capacity": 61
  },
  {
    "id": "BTS_CTH_034",
    "name": "Tram CHÂU THÀNH 34",
    "type": "4G",
    "lat": 10.400455,
    "lng": 106.316305,
    "province": "CHÂU THÀNH",
    "district": "Quan 11",
    "signalStrength": -61,
    "traffic": 395,
    "subscribers": 1382,
    "status": "active",
    "uptime": 97.75,
    "lastUpdate": "2026-01-28T07:37:54.001Z",
    "alarms": 1,
    "capacity": 73
  },
  {
    "id": "BTS_LVG_035",
    "name": "Tram LAI VUNG 35",
    "type": "5G",
    "lat": 10.357779,
    "lng": 105.639676,
    "province": "LAI VUNG",
    "district": "Quan 1",
    "signalStrength": -61,
    "traffic": 514,
    "subscribers": 5077,
    "status": "active",
    "uptime": 99.14,
    "lastUpdate": "2026-01-28T07:28:58.983Z",
    "alarms": 4,
    "capacity": 63
  },
  {
    "id": "BTS_GCT_036",
    "name": "Tram GÒ CÔNG TÂY 36",
    "type": "3G",
    "lat": 10.207711,
    "lng": 106.792831,
    "province": "GÒ CÔNG TÂY",
    "district": "Quan 6",
    "signalStrength": -70,
    "traffic": 266,
    "subscribers": 1106,
    "status": "critical",
    "uptime": 97.47,
    "lastUpdate": "2026-01-28T07:48:15.890Z",
    "alarms": 4,
    "capacity": 55
  },
  {
    "id": "BTS_TNG_037",
    "name": "Tram TAM NÔNG 37",
    "type": "4G",
    "lat": 10.727949,
    "lng": 105.633866,
    "province": "TAM NÔNG",
    "district": "Quan 1",
    "signalStrength": -63,
    "traffic": 428,
    "subscribers": 3252,
    "status": "critical",
    "uptime": 96.21,
    "lastUpdate": "2026-01-28T07:10:38.198Z",
    "alarms": 1,
    "capacity": 65
  },
  {
    "id": "BTS_HNU_038",
    "name": "Tram HỒNG NGỰ 38",
    "type": "5G",
    "lat": 10.915157,
    "lng": 105.259238,
    "province": "HỒNG NGỰ",
    "district": "Quan 12",
    "signalStrength": -51,
    "traffic": 477,
    "subscribers": 5240,
    "status": "active",
    "uptime": 95.81,
    "lastUpdate": "2026-01-28T07:41:22.273Z",
    "alarms": 1,
    "capacity": 79
  },
  {
    "id": "BTS_CBE_039",
    "name": "Tram CÁI BÈ 39",
    "type": "3G",
    "lat": 10.441011,
    "lng": 105.970164,
    "province": "CÁI BÈ",
    "district": "Quan 4",
    "signalStrength": -67,
    "traffic": 406,
    "subscribers": 616,
    "status": "offline",
    "uptime": 95.58,
    "lastUpdate": "2026-01-28T07:18:44.293Z",
    "alarms": 1,
    "capacity": 40
  },
  {
    "id": "BTS_SDC_040",
    "name": "Tram SA ĐÉC 40",
    "type": "5G",
    "lat": 10.219361,
    "lng": 105.671185,
    "province": "SA ĐÉC",
    "district": "Quan 7",
    "signalStrength": -79,
    "traffic": 171,
    "subscribers": 5014,
    "status": "active",
    "uptime": 95.75,
    "lastUpdate": "2026-01-28T07:24:08.174Z",
    "alarms": 4,
    "capacity": 50
  },
  {
    "id": "BTS_MTO_041",
    "name": "Tram MỸ THO 41",
    "type": "4G",
    "lat": 10.377968,
    "lng": 106.386196,
    "province": "MỸ THO",
    "district": "Quan 9",
    "signalStrength": -65,
    "traffic": 348,
    "subscribers": 572,
    "status": "active",
    "uptime": 96.63,
    "lastUpdate": "2026-01-28T07:14:25.993Z",
    "alarms": 3,
    "capacity": 74
  },
  {
    "id": "BTS_CGO_042",
    "name": "Tram CHỢ GẠO 42",
    "type": "4G",
    "lat": 10.417211,
    "lng": 106.420333,
    "province": "CHỢ GẠO",
    "district": "Quan 7",
    "signalStrength": -60,
    "traffic": 125,
    "subscribers": 4021,
    "status": "active",
    "uptime": 95.95,
    "lastUpdate": "2026-01-28T07:57:32.847Z",
    "alarms": 1,
    "capacity": 77
  },
  {
    "id": "BTS_MTH_043",
    "name": "Tram MỸ THỌ 43",
    "type": "3G",
    "lat": 10.328658,
    "lng": 105.770918,
    "province": "MỸ THỌ",
    "district": "Quan 8",
    "signalStrength": -79,
    "traffic": 469,
    "subscribers": 4464,
    "status": "active",
    "uptime": 98.04,
    "lastUpdate": "2026-01-28T07:11:42.424Z",
    "alarms": 1,
    "capacity": 66
  },
  {
    "id": "BTS_CBE_044",
    "name": "Tram CÁI BÈ 44",
    "type": "2G",
    "lat": 10.327346,
    "lng": 105.879583,
    "province": "CÁI BÈ",
    "district": "Quan 9",
    "signalStrength": -78,
    "traffic": 142,
    "subscribers": 2082,
    "status": "active",
    "uptime": 98.42,
    "lastUpdate": "2026-01-28T07:15:52.954Z",
    "alarms": 4,
    "capacity": 70
  },
  {
    "id": "BTS_TBH_045",
    "name": "Tram THANH BÌNH 45",
    "type": "3G",
    "lat": 10.710636,
    "lng": 105.411794,
    "province": "THANH BÌNH",
    "district": "Quan 4",
    "signalStrength": -87,
    "traffic": 387,
    "subscribers": 1087,
    "status": "active",
    "uptime": 96.37,
    "lastUpdate": "2026-01-28T08:03:07.442Z",
    "alarms": 0,
    "capacity": 54
  },
  {
    "id": "BTS_CGO_046",
    "name": "Tram CHỢ GẠO 46",
    "type": "4G",
    "lat": 10.453474,
    "lng": 106.529884,
    "province": "CHỢ GẠO",
    "district": "Quan 10",
    "signalStrength": -73,
    "traffic": 305,
    "subscribers": 3562,
    "status": "active",
    "uptime": 97.09,
    "lastUpdate": "2026-01-28T07:19:28.618Z",
    "alarms": 1,
    "capacity": 70
  },
  {
    "id": "BTS_HNU_047",
    "name": "Tram HỒNG NGỰ 47",
    "type": "3G",
    "lat": 10.951814,
    "lng": 105.322102,
    "province": "HỒNG NGỰ",
    "district": "Quan 3",
    "signalStrength": -93,
    "traffic": 168,
    "subscribers": 4050,
    "status": "active",
    "uptime": 96.87,
    "lastUpdate": "2026-01-28T07:14:12.969Z",
    "alarms": 0,
    "capacity": 77
  },
  {
    "id": "BTS_MTO_048",
    "name": "Tram MỸ THO 48",
    "type": "2G",
    "lat": 10.358875,
    "lng": 106.313732,
    "province": "MỸ THO",
    "district": "Quan 10",
    "signalStrength": -81,
    "traffic": 255,
    "subscribers": 1812,
    "status": "active",
    "uptime": 99.01,
    "lastUpdate": "2026-01-28T07:42:07.712Z",
    "alarms": 2,
    "capacity": 54
  },
  {
    "id": "BTS_CBE_049",
    "name": "Tram CÁI BÈ 49",
    "type": "2G",
    "lat": 10.352558,
    "lng": 105.949657,
    "province": "CÁI BÈ",
    "district": "Quan 8",
    "signalStrength": -73,
    "traffic": 173,
    "subscribers": 602,
    "status": "active",
    "uptime": 96.31,
    "lastUpdate": "2026-01-28T07:47:09.997Z",
    "alarms": 2,
    "capacity": 59
  },
  {
    "id": "BTS_CGO_050",
    "name": "Tram CHỢ GẠO 50",
    "type": "3G",
    "lat": 10.35164,
    "lng": 106.427668,
    "province": "CHỢ GẠO",
    "district": "Quan 3",
    "signalStrength": -80,
    "traffic": 245,
    "subscribers": 4723,
    "status": "active",
    "uptime": 98.58,
    "lastUpdate": "2026-01-28T07:35:12.301Z",
    "alarms": 4,
    "capacity": 48
  },
  {
    "id": "BTS_GCG_051",
    "name": "Tram GÒ CÔNG 51",
    "type": "3G",
    "lat": 10.36275,
    "lng": 106.696563,
    "province": "GÒ CÔNG",
    "district": "Quan 12",
    "signalStrength": -76,
    "traffic": 183,
    "subscribers": 1791,
    "status": "active",
    "uptime": 98.89,
    "lastUpdate": "2026-01-28T07:29:59.261Z",
    "alarms": 3,
    "capacity": 52
  },
  {
    "id": "BTS_CTH_052",
    "name": "Tram CHÂU THÀNH 52",
    "type": "3G",
    "lat": 10.399926,
    "lng": 106.279873,
    "province": "CHÂU THÀNH",
    "district": "Quan 5",
    "signalStrength": -67,
    "traffic": 221,
    "subscribers": 2740,
    "status": "active",
    "uptime": 98.9,
    "lastUpdate": "2026-01-28T07:45:33.823Z",
    "alarms": 2,
    "capacity": 63
  },
  {
    "id": "BTS_CTH_053",
    "name": "Tram CHÂU THÀNH 53",
    "type": "5G",
    "lat": 10.368954,
    "lng": 106.314424,
    "province": "CHÂU THÀNH",
    "district": "Quan 5",
    "signalStrength": -76,
    "traffic": 370,
    "subscribers": 737,
    "status": "critical",
    "uptime": 96.17,
    "lastUpdate": "2026-01-28T07:57:58.558Z",
    "alarms": 4,
    "capacity": 56
  },
  {
    "id": "BTS_CLY_054",
    "name": "Tram CAI LẬY 54",
    "type": "3G",
    "lat": 10.312166,
    "lng": 106.106504,
    "province": "CAI LẬY",
    "district": "Quan 2",
    "signalStrength": -81,
    "traffic": 418,
    "subscribers": 2610,
    "status": "warning",
    "uptime": 97.57,
    "lastUpdate": "2026-01-28T07:51:02.932Z",
    "alarms": 0,
    "capacity": 72
  },
  {
    "id": "BTS_TMI_055",
    "name": "Tram THÁP MƯỜI 55",
    "type": "3G",
    "lat": 10.697787,
    "lng": 105.719099,
    "province": "THÁP MƯỜI",
    "district": "Quan 2",
    "signalStrength": -80,
    "traffic": 159,
    "subscribers": 3411,
    "status": "active",
    "uptime": 98.42,
    "lastUpdate": "2026-01-28T07:57:09.796Z",
    "alarms": 3,
    "capacity": 42
  },
  {
    "id": "BTS_MTO_056",
    "name": "Tram MỸ THO 56",
    "type": "2G",
    "lat": 10.335862,
    "lng": 106.358789,
    "province": "MỸ THO",
    "district": "Quan 7",
    "signalStrength": -95,
    "traffic": 359,
    "subscribers": 5300,
    "status": "active",
    "uptime": 98.81,
    "lastUpdate": "2026-01-28T07:11:10.497Z",
    "alarms": 2,
    "capacity": 48
  },
  {
    "id": "BTS_TMI_057",
    "name": "Tram THÁP MƯỜI 57",
    "type": "3G",
    "lat": 10.548709,
    "lng": 105.697175,
    "province": "THÁP MƯỜI",
    "district": "Quan 2",
    "signalStrength": -92,
    "traffic": 511,
    "subscribers": 1927,
    "status": "active",
    "uptime": 96.59,
    "lastUpdate": "2026-01-28T07:12:43.107Z",
    "alarms": 2,
    "capacity": 67
  },
  {
    "id": "BTS_TPC_058",
    "name": "Tram TÂN PHƯỚC 58",
    "type": "5G",
    "lat": 10.428034,
    "lng": 106.268785,
    "province": "TÂN PHƯỚC",
    "district": "Quan 11",
    "signalStrength": -63,
    "traffic": 193,
    "subscribers": 4880,
    "status": "active",
    "uptime": 96.12,
    "lastUpdate": "2026-01-28T08:09:49.395Z",
    "alarms": 3,
    "capacity": 75
  },
  {
    "id": "BTS_MTH_059",
    "name": "Tram MỸ THỌ 59",
    "type": "3G",
    "lat": 10.490565,
    "lng": 105.697114,
    "province": "MỸ THỌ",
    "district": "Quan 9",
    "signalStrength": -71,
    "traffic": 92,
    "subscribers": 1511,
    "status": "active",
    "uptime": 99.82,
    "lastUpdate": "2026-01-28T07:37:03.630Z",
    "alarms": 4,
    "capacity": 73
  },
  {
    "id": "BTS_CTH_060",
    "name": "Tram CHÂU THÀNH 60",
    "type": "5G",
    "lat": 10.438088,
    "lng": 106.364844,
    "province": "CHÂU THÀNH",
    "district": "Quan 2",
    "signalStrength": -51,
    "traffic": 283,
    "subscribers": 4477,
    "status": "active",
    "uptime": 99.55,
    "lastUpdate": "2026-01-28T08:00:14.169Z",
    "alarms": 0,
    "capacity": 43
  },
  {
    "id": "BTS_GCG_061",
    "name": "Tram GÒ CÔNG 61",
    "type": "2G",
    "lat": 10.344648,
    "lng": 106.66067,
    "province": "GÒ CÔNG",
    "district": "Quan 6",
    "signalStrength": -94,
    "traffic": 286,
    "subscribers": 2126,
    "status": "active",
    "uptime": 97.6,
    "lastUpdate": "2026-01-28T07:26:10.308Z",
    "alarms": 4,
    "capacity": 55
  },
  {
    "id": "BTS_CLY_062",
    "name": "Tram CAI LẬY 62",
    "type": "4G",
    "lat": 10.291251,
    "lng": 106.031251,
    "province": "CAI LẬY",
    "district": "Quan 11",
    "signalStrength": -59,
    "traffic": 149,
    "subscribers": 5191,
    "status": "active",
    "uptime": 98.62,
    "lastUpdate": "2026-01-28T07:48:42.137Z",
    "alarms": 3,
    "capacity": 46
  },
  {
    "id": "BTS_CGO_063",
    "name": "Tram CHỢ GẠO 63",
    "type": "5G",
    "lat": 10.312955,
    "lng": 106.378296,
    "province": "CHỢ GẠO",
    "district": "Quan 5",
    "signalStrength": -68,
    "traffic": 446,
    "subscribers": 3740,
    "status": "critical",
    "uptime": 95.91,
    "lastUpdate": "2026-01-28T08:00:05.027Z",
    "alarms": 1,
    "capacity": 48
  },
  {
    "id": "BTS_GCG_064",
    "name": "Tram GÒ CÔNG 64",
    "type": "5G",
    "lat": 10.320175,
    "lng": 106.809577,
    "province": "GÒ CÔNG",
    "district": "Quan 1",
    "signalStrength": -63,
    "traffic": 87,
    "subscribers": 1682,
    "status": "warning",
    "uptime": 95.15,
    "lastUpdate": "2026-01-28T07:47:04.656Z",
    "alarms": 0,
    "capacity": 56
  },
  {
    "id": "BTS_TMI_065",
    "name": "Tram THÁP MƯỜI 65",
    "type": "2G",
    "lat": 10.513254,
    "lng": 105.836551,
    "province": "THÁP MƯỜI",
    "district": "Quan 2",
    "signalStrength": -90,
    "traffic": 416,
    "subscribers": 5418,
    "status": "warning",
    "uptime": 96.97,
    "lastUpdate": "2026-01-28T08:00:30.062Z",
    "alarms": 1,
    "capacity": 48
  },
  {
    "id": "BTS_TNG_066",
    "name": "Tram TAM NÔNG 66",
    "type": "5G",
    "lat": 10.786393,
    "lng": 105.400057,
    "province": "TAM NÔNG",
    "district": "Quan 4",
    "signalStrength": -73,
    "traffic": 69,
    "subscribers": 1881,
    "status": "active",
    "uptime": 97.73,
    "lastUpdate": "2026-01-28T07:46:50.962Z",
    "alarms": 0,
    "capacity": 66
  },
  {
    "id": "BTS_TBH_067",
    "name": "Tram THANH BÌNH 67",
    "type": "3G",
    "lat": 10.614388,
    "lng": 105.427241,
    "province": "THANH BÌNH",
    "district": "Quan 11",
    "signalStrength": -85,
    "traffic": 372,
    "subscribers": 5282,
    "status": "active",
    "uptime": 95.22,
    "lastUpdate": "2026-01-28T07:54:34.233Z",
    "alarms": 1,
    "capacity": 53
  },
  {
    "id": "BTS_CGO_068",
    "name": "Tram CHỢ GẠO 68",
    "type": "4G",
    "lat": 10.491572,
    "lng": 106.447764,
    "province": "CHỢ GẠO",
    "district": "Quan 10",
    "signalStrength": -72,
    "traffic": 529,
    "subscribers": 4735,
    "status": "critical",
    "uptime": 97.27,
    "lastUpdate": "2026-01-28T07:22:11.539Z",
    "alarms": 4,
    "capacity": 55
  },
  {
    "id": "BTS_TPC_069",
    "name": "Tram TÂN PHƯỚC 69",
    "type": "5G",
    "lat": 10.405371,
    "lng": 106.116441,
    "province": "TÂN PHƯỚC",
    "district": "Quan 3",
    "signalStrength": -66,
    "traffic": 388,
    "subscribers": 3932,
    "status": "active",
    "uptime": 95.13,
    "lastUpdate": "2026-01-28T07:18:16.386Z",
    "alarms": 3,
    "capacity": 42
  },
  {
    "id": "BTS_CGO_070",
    "name": "Tram CHỢ GẠO 70",
    "type": "5G",
    "lat": 10.359292,
    "lng": 106.553089,
    "province": "CHỢ GẠO",
    "district": "Quan 6",
    "signalStrength": -68,
    "traffic": 60,
    "subscribers": 2181,
    "status": "warning",
    "uptime": 95.83,
    "lastUpdate": "2026-01-28T07:15:47.912Z",
    "alarms": 3,
    "capacity": 67
  },
  {
    "id": "BTS_CLH_071",
    "name": "Tram CAO LÃNH 71",
    "type": "3G",
    "lat": 10.502959,
    "lng": 105.71604,
    "province": "CAO LÃNH",
    "district": "Quan 5",
    "signalStrength": -91,
    "traffic": 199,
    "subscribers": 1719,
    "status": "active",
    "uptime": 95.25,
    "lastUpdate": "2026-01-28T07:24:26.859Z",
    "alarms": 3,
    "capacity": 57
  },
  {
    "id": "BTS_CLY_072",
    "name": "Tram CAI LẬY 72",
    "type": "5G",
    "lat": 10.412233,
    "lng": 106.04329,
    "province": "CAI LẬY",
    "district": "Quan 6",
    "signalStrength": -51,
    "traffic": 216,
    "subscribers": 778,
    "status": "critical",
    "uptime": 96.21,
    "lastUpdate": "2026-01-28T07:11:48.194Z",
    "alarms": 4,
    "capacity": 46
  },
  {
    "id": "BTS_SDC_073",
    "name": "Tram SA ĐÉC 73",
    "type": "2G",
    "lat": 10.279945,
    "lng": 105.708852,
    "province": "SA ĐÉC",
    "district": "Quan 3",
    "signalStrength": -84,
    "traffic": 470,
    "subscribers": 2533,
    "status": "active",
    "uptime": 96.21,
    "lastUpdate": "2026-01-28T07:55:15.814Z",
    "alarms": 2,
    "capacity": 58
  },
  {
    "id": "BTS_CBE_074",
    "name": "Tram CÁI BÈ 74",
    "type": "4G",
    "lat": 10.312709,
    "lng": 106.001761,
    "province": "CÁI BÈ",
    "district": "Quan 9",
    "signalStrength": -78,
    "traffic": 59,
    "subscribers": 2504,
    "status": "warning",
    "uptime": 98.25,
    "lastUpdate": "2026-01-28T07:34:53.742Z",
    "alarms": 1,
    "capacity": 45
  },
  {
    "id": "BTS_CLH_075",
    "name": "Tram CAO LÃNH 75",
    "type": "4G",
    "lat": 10.575829,
    "lng": 105.671098,
    "province": "CAO LÃNH",
    "district": "Quan 3",
    "signalStrength": -82,
    "traffic": 453,
    "subscribers": 873,
    "status": "active",
    "uptime": 99.21,
    "lastUpdate": "2026-01-28T07:32:34.615Z",
    "alarms": 4,
    "capacity": 42
  },
  {
    "id": "BTS_TPC_076",
    "name": "Tram TÂN PHƯỚC 76",
    "type": "5G",
    "lat": 10.508524,
    "lng": 106.142627,
    "province": "TÂN PHƯỚC",
    "district": "Quan 9",
    "signalStrength": -71,
    "traffic": 185,
    "subscribers": 5108,
    "status": "active",
    "uptime": 98.93,
    "lastUpdate": "2026-01-28T07:15:59.259Z",
    "alarms": 4,
    "capacity": 55
  },
  {
    "id": "BTS_CLY_077",
    "name": "Tram CAI LẬY 77",
    "type": "2G",
    "lat": 10.361992,
    "lng": 106.116184,
    "province": "CAI LẬY",
    "district": "Quan 12",
    "signalStrength": -95,
    "traffic": 322,
    "subscribers": 3924,
    "status": "active",
    "uptime": 99.38,
    "lastUpdate": "2026-01-28T08:07:48.384Z",
    "alarms": 4,
    "capacity": 70
  },
  {
    "id": "BTS_SDC_078",
    "name": "Tram SA ĐÉC 78",
    "type": "3G",
    "lat": 10.255985,
    "lng": 105.819346,
    "province": "SA ĐÉC",
    "district": "Quan 6",
    "signalStrength": -84,
    "traffic": 95,
    "subscribers": 4922,
    "status": "active",
    "uptime": 96.83,
    "lastUpdate": "2026-01-28T07:18:16.605Z",
    "alarms": 2,
    "capacity": 51
  },
  {
    "id": "BTS_GCG_079",
    "name": "Tram GÒ CÔNG 79",
    "type": "4G",
    "lat": 10.49463,
    "lng": 106.672999,
    "province": "GÒ CÔNG",
    "district": "Quan 6",
    "signalStrength": -81,
    "traffic": 376,
    "subscribers": 3598,
    "status": "warning",
    "uptime": 95.56,
    "lastUpdate": "2026-01-28T07:44:11.799Z",
    "alarms": 1,
    "capacity": 73
  },
  {
    "id": "BTS_GCG_080",
    "name": "Tram GÒ CÔNG 80",
    "type": "2G",
    "lat": 10.339632,
    "lng": 106.78727,
    "province": "GÒ CÔNG",
    "district": "Quan 10",
    "signalStrength": -98,
    "traffic": 477,
    "subscribers": 3191,
    "status": "active",
    "uptime": 96.62,
    "lastUpdate": "2026-01-28T07:43:28.699Z",
    "alarms": 0,
    "capacity": 46
  },
  {
    "id": "BTS_TPC_081",
    "name": "Tram TÂN PHƯỚC 81",
    "type": "2G",
    "lat": 10.420891,
    "lng": 106.247055,
    "province": "TÂN PHƯỚC",
    "district": "Quan 9",
    "signalStrength": -79,
    "traffic": 440,
    "subscribers": 4775,
    "status": "critical",
    "uptime": 95.98,
    "lastUpdate": "2026-01-28T07:37:58.999Z",
    "alarms": 3,
    "capacity": 42
  },
  {
    "id": "BTS_TBH_082",
    "name": "Tram THANH BÌNH 82",
    "type": "5G",
    "lat": 10.740766,
    "lng": 105.512178,
    "province": "THANH BÌNH",
    "district": "Quan 11",
    "signalStrength": -67,
    "traffic": 527,
    "subscribers": 772,
    "status": "active",
    "uptime": 99.49,
    "lastUpdate": "2026-01-28T07:52:42.140Z",
    "alarms": 1,
    "capacity": 45
  },
  {
    "id": "BTS_TMI_083",
    "name": "Tram THÁP MƯỜI 83",
    "type": "3G",
    "lat": 10.4208,
    "lng": 105.835578,
    "province": "THÁP MƯỜI",
    "district": "Quan 2",
    "signalStrength": -69,
    "traffic": 522,
    "subscribers": 5366,
    "status": "active",
    "uptime": 96.29,
    "lastUpdate": "2026-01-28T07:20:30.018Z",
    "alarms": 4,
    "capacity": 79
  },
  {
    "id": "BTS_MTH_084",
    "name": "Tram MỸ THỌ 84",
    "type": "4G",
    "lat": 10.319966,
    "lng": 105.804144,
    "province": "MỸ THỌ",
    "district": "Quan 3",
    "signalStrength": -79,
    "traffic": 423,
    "subscribers": 1501,
    "status": "warning",
    "uptime": 99.46,
    "lastUpdate": "2026-01-28T07:17:21.969Z",
    "alarms": 3,
    "capacity": 60
  },
  {
    "id": "BTS_CGO_085",
    "name": "Tram CHỢ GẠO 85",
    "type": "4G",
    "lat": 10.417818,
    "lng": 106.475306,
    "province": "CHỢ GẠO",
    "district": "Quan 3",
    "signalStrength": -83,
    "traffic": 293,
    "subscribers": 1518,
    "status": "active",
    "uptime": 97.53,
    "lastUpdate": "2026-01-28T07:21:16.007Z",
    "alarms": 4,
    "capacity": 63
  },
  {
    "id": "BTS_TNG_086",
    "name": "Tram TAM NÔNG 86",
    "type": "5G",
    "lat": 10.672943,
    "lng": 105.39335,
    "province": "TAM NÔNG",
    "district": "Quan 1",
    "signalStrength": -79,
    "traffic": 296,
    "subscribers": 2810,
    "status": "offline",
    "uptime": 95.45,
    "lastUpdate": "2026-01-28T07:30:37.206Z",
    "alarms": 2,
    "capacity": 70
  },
  {
    "id": "BTS_MTO_087",
    "name": "Tram MỸ THO 87",
    "type": "2G",
    "lat": 10.366057,
    "lng": 106.289514,
    "province": "MỸ THO",
    "district": "Quan 11",
    "signalStrength": -71,
    "traffic": 234,
    "subscribers": 3721,
    "status": "active",
    "uptime": 97.14,
    "lastUpdate": "2026-01-28T07:37:28.882Z",
    "alarms": 4,
    "capacity": 61
  },
  {
    "id": "BTS_TNG_088",
    "name": "Tram TAM NÔNG 88",
    "type": "3G",
    "lat": 10.767238,
    "lng": 105.444855,
    "province": "TAM NÔNG",
    "district": "Quan 6",
    "signalStrength": -77,
    "traffic": 304,
    "subscribers": 5223,
    "status": "warning",
    "uptime": 95.22,
    "lastUpdate": "2026-01-28T07:43:17.228Z",
    "alarms": 4,
    "capacity": 71
  },
  {
    "id": "BTS_TMI_089",
    "name": "Tram THÁP MƯỜI 89",
    "type": "4G",
    "lat": 10.647842,
    "lng": 105.921081,
    "province": "THÁP MƯỜI",
    "district": "Quan 9",
    "signalStrength": -76,
    "traffic": 483,
    "subscribers": 2822,
    "status": "warning",
    "uptime": 96.48,
    "lastUpdate": "2026-01-28T07:44:53.708Z",
    "alarms": 3,
    "capacity": 68
  },
  {
    "id": "BTS_TBH_090",
    "name": "Tram THANH BÌNH 90",
    "type": "2G",
    "lat": 10.718137,
    "lng": 105.505021,
    "province": "THANH BÌNH",
    "district": "Quan 12",
    "signalStrength": -81,
    "traffic": 213,
    "subscribers": 1127,
    "status": "critical",
    "uptime": 98.91,
    "lastUpdate": "2026-01-28T08:06:49.735Z",
    "alarms": 4,
    "capacity": 79
  },
  {
    "id": "BTS_CLY_091",
    "name": "Tram CAI LẬY 91",
    "type": "5G",
    "lat": 10.346375,
    "lng": 106.01698,
    "province": "CAI LẬY",
    "district": "Quan 9",
    "signalStrength": -63,
    "traffic": 333,
    "subscribers": 4050,
    "status": "critical",
    "uptime": 98.24,
    "lastUpdate": "2026-01-28T07:44:06.939Z",
    "alarms": 2,
    "capacity": 55
  },
  {
    "id": "BTS_MTO_092",
    "name": "Tram MỸ THO 92",
    "type": "2G",
    "lat": 10.401159,
    "lng": 106.352532,
    "province": "MỸ THO",
    "district": "Quan 4",
    "signalStrength": -100,
    "traffic": 470,
    "subscribers": 5233,
    "status": "warning",
    "uptime": 99.1,
    "lastUpdate": "2026-01-28T07:15:55.554Z",
    "alarms": 0,
    "capacity": 40
  },
  {
    "id": "BTS_CTH_093",
    "name": "Tram CHÂU THÀNH 93",
    "type": "5G",
    "lat": 10.433679,
    "lng": 106.208135,
    "province": "CHÂU THÀNH",
    "district": "Quan 7",
    "signalStrength": -67,
    "traffic": 252,
    "subscribers": 1658,
    "status": "warning",
    "uptime": 95.04,
    "lastUpdate": "2026-01-28T07:46:26.387Z",
    "alarms": 0,
    "capacity": 72
  },
  {
    "id": "BTS_TMI_094",
    "name": "Tram THÁP MƯỜI 94",
    "type": "3G",
    "lat": 10.460736,
    "lng": 105.767966,
    "province": "THÁP MƯỜI",
    "district": "Quan 9",
    "signalStrength": -83,
    "traffic": 397,
    "subscribers": 1739,
    "status": "active",
    "uptime": 99.01,
    "lastUpdate": "2026-01-28T07:23:40.115Z",
    "alarms": 2,
    "capacity": 68
  },
  {
    "id": "BTS_CLY_095",
    "name": "Tram CAI LẬY 95",
    "type": "5G",
    "lat": 10.457119,
    "lng": 106.059566,
    "province": "CAI LẬY",
    "district": "Quan 2",
    "signalStrength": -60,
    "traffic": 396,
    "subscribers": 1076,
    "status": "offline",
    "uptime": 95.82,
    "lastUpdate": "2026-01-28T07:39:34.098Z",
    "alarms": 1,
    "capacity": 65
  },
  {
    "id": "BTS_SDC_096",
    "name": "Tram SA ĐÉC 96",
    "type": "3G",
    "lat": 10.234568,
    "lng": 105.714356,
    "province": "SA ĐÉC",
    "district": "Quan 6",
    "signalStrength": -93,
    "traffic": 377,
    "subscribers": 4185,
    "status": "active",
    "uptime": 96.06,
    "lastUpdate": "2026-01-28T07:24:19.260Z",
    "alarms": 4,
    "capacity": 51
  },
  {
    "id": "BTS_TMI_097",
    "name": "Tram THÁP MƯỜI 97",
    "type": "2G",
    "lat": 10.442911,
    "lng": 105.645523,
    "province": "THÁP MƯỜI",
    "district": "Quan 9",
    "signalStrength": -74,
    "traffic": 482,
    "subscribers": 3563,
    "status": "active",
    "uptime": 98.06,
    "lastUpdate": "2026-01-28T08:09:15.426Z",
    "alarms": 2,
    "capacity": 46
  },
  {
    "id": "BTS_CLY_098",
    "name": "Tram CAI LẬY 98",
    "type": "4G",
    "lat": 10.515896,
    "lng": 106.085987,
    "province": "CAI LẬY",
    "district": "Quan 1",
    "signalStrength": -68,
    "traffic": 467,
    "subscribers": 3754,
    "status": "active",
    "uptime": 95.54,
    "lastUpdate": "2026-01-28T07:27:07.070Z",
    "alarms": 4,
    "capacity": 46
  },
  {
    "id": "BTS_MTO_099",
    "name": "Tram MỸ THO 99",
    "type": "5G",
    "lat": 10.371371,
    "lng": 106.269242,
    "province": "MỸ THO",
    "district": "Quan 8",
    "signalStrength": -56,
    "traffic": 312,
    "subscribers": 4531,
    "status": "active",
    "uptime": 99.45,
    "lastUpdate": "2026-01-28T07:55:02.585Z",
    "alarms": 0,
    "capacity": 44
  },
  {
    "id": "BTS_TNG_100",
    "name": "Tram TAM NÔNG 100",
    "type": "2G",
    "lat": 10.751351,
    "lng": 105.506615,
    "province": "TAM NÔNG",
    "district": "Quan 6",
    "signalStrength": -81,
    "traffic": 461,
    "subscribers": 3444,
    "status": "warning",
    "uptime": 96.68,
    "lastUpdate": "2026-01-28T07:15:20.208Z",
    "alarms": 2,
    "capacity": 43
  },
  {
    "id": "BTS_CTH_101",
    "name": "Tram CHÂU THÀNH 101",
    "type": "5G",
    "lat": 10.485837,
    "lng": 106.254157,
    "province": "CHÂU THÀNH",
    "district": "Quan 12",
    "signalStrength": -69,
    "traffic": 402,
    "subscribers": 4481,
    "status": "active",
    "uptime": 98.54,
    "lastUpdate": "2026-01-28T07:32:46.118Z",
    "alarms": 4,
    "capacity": 58
  },
  {
    "id": "BTS_MTO_102",
    "name": "Tram MỸ THO 102",
    "type": "5G",
    "lat": 10.393616,
    "lng": 106.325299,
    "province": "MỸ THO",
    "district": "Quan 8",
    "signalStrength": -72,
    "traffic": 523,
    "subscribers": 2901,
    "status": "active",
    "uptime": 98.86,
    "lastUpdate": "2026-01-28T07:21:26.780Z",
    "alarms": 2,
    "capacity": 79
  },
  {
    "id": "BTS_CLY_103",
    "name": "Tram CAI LẬY 103",
    "type": "5G",
    "lat": 10.487319,
    "lng": 106.14955,
    "province": "CAI LẬY",
    "district": "Quan 12",
    "signalStrength": -75,
    "traffic": 56,
    "subscribers": 5101,
    "status": "warning",
    "uptime": 98.72,
    "lastUpdate": "2026-01-28T07:34:39.329Z",
    "alarms": 0,
    "capacity": 50
  },
  {
    "id": "BTS_HNU_104",
    "name": "Tram HỒNG NGỰ 104",
    "type": "4G",
    "lat": 10.762188,
    "lng": 105.370482,
    "province": "HỒNG NGỰ",
    "district": "Quan 10",
    "signalStrength": -62,
    "traffic": 414,
    "subscribers": 507,
    "status": "offline",
    "uptime": 98.6,
    "lastUpdate": "2026-01-28T07:55:29.139Z",
    "alarms": 2,
    "capacity": 55
  },
  {
    "id": "BTS_LVG_105",
    "name": "Tram LAI VUNG 105",
    "type": "3G",
    "lat": 10.254098,
    "lng": 105.58047,
    "province": "LAI VUNG",
    "district": "Quan 6",
    "signalStrength": -72,
    "traffic": 96,
    "subscribers": 2820,
    "status": "critical",
    "uptime": 95.72,
    "lastUpdate": "2026-01-28T07:25:27.463Z",
    "alarms": 0,
    "capacity": 71
  },
  {
    "id": "BTS_GCT_106",
    "name": "Tram GÒ CÔNG TÂY 106",
    "type": "5G",
    "lat": 10.212191,
    "lng": 106.787205,
    "province": "GÒ CÔNG TÂY",
    "district": "Quan 3",
    "signalStrength": -55,
    "traffic": 115,
    "subscribers": 2906,
    "status": "offline",
    "uptime": 95.74,
    "lastUpdate": "2026-01-28T07:11:01.293Z",
    "alarms": 0,
    "capacity": 50
  },
  {
    "id": "BTS_MTO_107",
    "name": "Tram MỸ THO 107",
    "type": "3G",
    "lat": 10.362472,
    "lng": 106.318484,
    "province": "MỸ THO",
    "district": "Quan 7",
    "signalStrength": -70,
    "traffic": 391,
    "subscribers": 4335,
    "status": "active",
    "uptime": 99.26,
    "lastUpdate": "2026-01-28T08:07:28.285Z",
    "alarms": 3,
    "capacity": 72
  },
  {
    "id": "BTS_LVG_108",
    "name": "Tram LAI VUNG 108",
    "type": "3G",
    "lat": 10.326351,
    "lng": 105.692908,
    "province": "LAI VUNG",
    "district": "Quan 12",
    "signalStrength": -75,
    "traffic": 173,
    "subscribers": 2651,
    "status": "offline",
    "uptime": 96.69,
    "lastUpdate": "2026-01-28T07:20:45.948Z",
    "alarms": 3,
    "capacity": 48
  },
  {
    "id": "BTS_TMI_109",
    "name": "Tram THÁP MƯỜI 109",
    "type": "4G",
    "lat": 10.472594,
    "lng": 105.786575,
    "province": "THÁP MƯỜI",
    "district": "Quan 10",
    "signalStrength": -61,
    "traffic": 366,
    "subscribers": 1357,
    "status": "active",
    "uptime": 96.92,
    "lastUpdate": "2026-01-28T07:47:31.051Z",
    "alarms": 2,
    "capacity": 71
  },
  {
    "id": "BTS_MTH_110",
    "name": "Tram MỸ THỌ 110",
    "type": "3G",
    "lat": 10.49128,
    "lng": 105.744949,
    "province": "MỸ THỌ",
    "district": "Quan 4",
    "signalStrength": -91,
    "traffic": 544,
    "subscribers": 4546,
    "status": "active",
    "uptime": 95,
    "lastUpdate": "2026-01-28T07:39:14.335Z",
    "alarms": 2,
    "capacity": 51
  },
  {
    "id": "BTS_TNG_111",
    "name": "Tram TAM NÔNG 111",
    "type": "3G",
    "lat": 10.758184,
    "lng": 105.474676,
    "province": "TAM NÔNG",
    "district": "Quan 6",
    "signalStrength": -76,
    "traffic": 432,
    "subscribers": 2033,
    "status": "warning",
    "uptime": 98.19,
    "lastUpdate": "2026-01-28T07:49:31.724Z",
    "alarms": 1,
    "capacity": 53
  },
  {
    "id": "BTS_MTH_112",
    "name": "Tram MỸ THỌ 112",
    "type": "3G",
    "lat": 10.359476,
    "lng": 105.747384,
    "province": "MỸ THỌ",
    "district": "Quan 6",
    "signalStrength": -79,
    "traffic": 104,
    "subscribers": 4778,
    "status": "active",
    "uptime": 98.54,
    "lastUpdate": "2026-01-28T07:18:42.216Z",
    "alarms": 2,
    "capacity": 67
  },
  {
    "id": "BTS_CBE_113",
    "name": "Tram CÁI BÈ 113",
    "type": "3G",
    "lat": 10.292167,
    "lng": 105.95218,
    "province": "CÁI BÈ",
    "district": "Quan 9",
    "signalStrength": -85,
    "traffic": 81,
    "subscribers": 4080,
    "status": "active",
    "uptime": 96.93,
    "lastUpdate": "2026-01-28T08:08:44.345Z",
    "alarms": 3,
    "capacity": 75
  },
  {
    "id": "BTS_SDC_114",
    "name": "Tram SA ĐÉC 114",
    "type": "2G",
    "lat": 10.151682,
    "lng": 105.861387,
    "province": "SA ĐÉC",
    "district": "Quan 8",
    "signalStrength": -94,
    "traffic": 254,
    "subscribers": 4577,
    "status": "offline",
    "uptime": 95.35,
    "lastUpdate": "2026-01-28T08:01:49.819Z",
    "alarms": 1,
    "capacity": 49
  },
  {
    "id": "BTS_CBE_115",
    "name": "Tram CÁI BÈ 115",
    "type": "2G",
    "lat": 10.315487,
    "lng": 105.934273,
    "province": "CÁI BÈ",
    "district": "Quan 5",
    "signalStrength": -95,
    "traffic": 313,
    "subscribers": 3128,
    "status": "active",
    "uptime": 95.88,
    "lastUpdate": "2026-01-28T08:03:59.280Z",
    "alarms": 1,
    "capacity": 46
  },
  {
    "id": "BTS_TPC_116",
    "name": "Tram TÂN PHƯỚC 116",
    "type": "5G",
    "lat": 10.424114,
    "lng": 106.239125,
    "province": "TÂN PHƯỚC",
    "district": "Quan 9",
    "signalStrength": -57,
    "traffic": 533,
    "subscribers": 1743,
    "status": "active",
    "uptime": 97.28,
    "lastUpdate": "2026-01-28T07:10:42.128Z",
    "alarms": 3,
    "capacity": 61
  },
  {
    "id": "BTS_TMI_117",
    "name": "Tram THÁP MƯỜI 117",
    "type": "2G",
    "lat": 10.664173,
    "lng": 105.772015,
    "province": "THÁP MƯỜI",
    "district": "Quan 3",
    "signalStrength": -72,
    "traffic": 511,
    "subscribers": 3011,
    "status": "critical",
    "uptime": 95.73,
    "lastUpdate": "2026-01-28T07:13:20.043Z",
    "alarms": 3,
    "capacity": 42
  },
  {
    "id": "BTS_SDC_118",
    "name": "Tram SA ĐÉC 118",
    "type": "2G",
    "lat": 10.311467,
    "lng": 105.818208,
    "province": "SA ĐÉC",
    "district": "Quan 12",
    "signalStrength": -90,
    "traffic": 499,
    "subscribers": 2420,
    "status": "offline",
    "uptime": 95.25,
    "lastUpdate": "2026-01-28T07:54:53.659Z",
    "alarms": 2,
    "capacity": 64
  },
  {
    "id": "BTS_TMI_119",
    "name": "Tram THÁP MƯỜI 119",
    "type": "4G",
    "lat": 10.412041,
    "lng": 105.692251,
    "province": "THÁP MƯỜI",
    "district": "Quan 3",
    "signalStrength": -68,
    "traffic": 360,
    "subscribers": 3230,
    "status": "warning",
    "uptime": 96.44,
    "lastUpdate": "2026-01-28T07:54:57.137Z",
    "alarms": 3,
    "capacity": 77
  },
  {
    "id": "BTS_CLY_120",
    "name": "Tram CAI LẬY 120",
    "type": "2G",
    "lat": 10.27932,
    "lng": 106.139329,
    "province": "CAI LẬY",
    "district": "Quan 6",
    "signalStrength": -91,
    "traffic": 300,
    "subscribers": 850,
    "status": "active",
    "uptime": 99.58,
    "lastUpdate": "2026-01-28T07:15:37.113Z",
    "alarms": 0,
    "capacity": 54
  },
  {
    "id": "BTS_TNG_121",
    "name": "Tram TAM NÔNG 121",
    "type": "5G",
    "lat": 10.796036,
    "lng": 105.622996,
    "province": "TAM NÔNG",
    "district": "Quan 12",
    "signalStrength": -68,
    "traffic": 361,
    "subscribers": 881,
    "status": "critical",
    "uptime": 99.77,
    "lastUpdate": "2026-01-28T07:48:45.723Z",
    "alarms": 2,
    "capacity": 70
  },
  {
    "id": "BTS_GCG_122",
    "name": "Tram GÒ CÔNG 122",
    "type": "2G",
    "lat": 10.286319,
    "lng": 106.67741,
    "province": "GÒ CÔNG",
    "district": "Quan 7",
    "signalStrength": -73,
    "traffic": 228,
    "subscribers": 1366,
    "status": "active",
    "uptime": 96.01,
    "lastUpdate": "2026-01-28T07:50:11.312Z",
    "alarms": 4,
    "capacity": 53
  },
  {
    "id": "BTS_TNG_123",
    "name": "Tram TAM NÔNG 123",
    "type": "2G",
    "lat": 10.770174,
    "lng": 105.488645,
    "province": "TAM NÔNG",
    "district": "Quan 2",
    "signalStrength": -86,
    "traffic": 521,
    "subscribers": 3651,
    "status": "active",
    "uptime": 97.94,
    "lastUpdate": "2026-01-28T08:02:23.570Z",
    "alarms": 3,
    "capacity": 62
  },
  {
    "id": "BTS_CTH_124",
    "name": "Tram CHÂU THÀNH 124",
    "type": "2G",
    "lat": 10.440882,
    "lng": 106.308456,
    "province": "CHÂU THÀNH",
    "district": "Quan 1",
    "signalStrength": -82,
    "traffic": 260,
    "subscribers": 3782,
    "status": "active",
    "uptime": 95.11,
    "lastUpdate": "2026-01-28T07:34:41.787Z",
    "alarms": 2,
    "capacity": 43
  },
  {
    "id": "BTS_CTH_125",
    "name": "Tram CHÂU THÀNH 125",
    "type": "2G",
    "lat": 10.502668,
    "lng": 106.22508,
    "province": "CHÂU THÀNH",
    "district": "Quan 12",
    "signalStrength": -75,
    "traffic": 90,
    "subscribers": 4597,
    "status": "offline",
    "uptime": 97.12,
    "lastUpdate": "2026-01-28T07:22:36.989Z",
    "alarms": 2,
    "capacity": 55
  },
  {
    "id": "BTS_MTO_126",
    "name": "Tram MỸ THO 126",
    "type": "5G",
    "lat": 10.380292,
    "lng": 106.278091,
    "province": "MỸ THO",
    "district": "Quan 4",
    "signalStrength": -60,
    "traffic": 194,
    "subscribers": 635,
    "status": "offline",
    "uptime": 98.04,
    "lastUpdate": "2026-01-28T07:32:05.969Z",
    "alarms": 2,
    "capacity": 62
  },
  {
    "id": "BTS_TPC_127",
    "name": "Tram TÂN PHƯỚC 127",
    "type": "2G",
    "lat": 10.417012,
    "lng": 106.09577,
    "province": "TÂN PHƯỚC",
    "district": "Quan 8",
    "signalStrength": -98,
    "traffic": 290,
    "subscribers": 3546,
    "status": "warning",
    "uptime": 98.47,
    "lastUpdate": "2026-01-28T07:46:54.063Z",
    "alarms": 1,
    "capacity": 56
  },
  {
    "id": "BTS_CLY_128",
    "name": "Tram CAI LẬY 128",
    "type": "5G",
    "lat": 10.465888,
    "lng": 106.027029,
    "province": "CAI LẬY",
    "district": "Quan 9",
    "signalStrength": -80,
    "traffic": 366,
    "subscribers": 3290,
    "status": "critical",
    "uptime": 98.55,
    "lastUpdate": "2026-01-28T07:27:43.013Z",
    "alarms": 4,
    "capacity": 76
  },
  {
    "id": "BTS_CGO_129",
    "name": "Tram CHỢ GẠO 129",
    "type": "2G",
    "lat": 10.44684,
    "lng": 106.53132,
    "province": "CHỢ GẠO",
    "district": "Quan 1",
    "signalStrength": -97,
    "traffic": 87,
    "subscribers": 4320,
    "status": "active",
    "uptime": 96.48,
    "lastUpdate": "2026-01-28T07:39:19.899Z",
    "alarms": 0,
    "capacity": 55
  },
  {
    "id": "BTS_CTH_130",
    "name": "Tram CHÂU THÀNH 130",
    "type": "2G",
    "lat": 10.503949,
    "lng": 106.21807,
    "province": "CHÂU THÀNH",
    "district": "Quan 3",
    "signalStrength": -78,
    "traffic": 90,
    "subscribers": 4686,
    "status": "active",
    "uptime": 99.64,
    "lastUpdate": "2026-01-28T07:16:59.151Z",
    "alarms": 0,
    "capacity": 47
  },
  {
    "id": "BTS_GCG_131",
    "name": "Tram GÒ CÔNG 131",
    "type": "4G",
    "lat": 10.300107,
    "lng": 106.608059,
    "province": "GÒ CÔNG",
    "district": "Quan 5",
    "signalStrength": -67,
    "traffic": 398,
    "subscribers": 2264,
    "status": "active",
    "uptime": 97.54,
    "lastUpdate": "2026-01-28T07:32:48.364Z",
    "alarms": 0,
    "capacity": 70
  },
  {
    "id": "BTS_MTO_132",
    "name": "Tram MỸ THO 132",
    "type": "3G",
    "lat": 10.342762,
    "lng": 106.266588,
    "province": "MỸ THO",
    "district": "Quan 9",
    "signalStrength": -89,
    "traffic": 116,
    "subscribers": 3667,
    "status": "active",
    "uptime": 98.74,
    "lastUpdate": "2026-01-28T07:47:20.106Z",
    "alarms": 3,
    "capacity": 67
  },
  {
    "id": "BTS_MTO_133",
    "name": "Tram MỸ THO 133",
    "type": "3G",
    "lat": 10.388405,
    "lng": 106.322074,
    "province": "MỸ THO",
    "district": "Quan 1",
    "signalStrength": -67,
    "traffic": 263,
    "subscribers": 5298,
    "status": "active",
    "uptime": 95.76,
    "lastUpdate": "2026-01-28T08:05:32.368Z",
    "alarms": 4,
    "capacity": 49
  },
  {
    "id": "BTS_CGO_134",
    "name": "Tram CHỢ GẠO 134",
    "type": "4G",
    "lat": 10.318952,
    "lng": 106.541258,
    "province": "CHỢ GẠO",
    "district": "Quan 1",
    "signalStrength": -62,
    "traffic": 340,
    "subscribers": 5466,
    "status": "critical",
    "uptime": 95.98,
    "lastUpdate": "2026-01-28T07:39:19.483Z",
    "alarms": 4,
    "capacity": 42
  },
  {
    "id": "BTS_CLH_135",
    "name": "Tram CAO LÃNH 135",
    "type": "3G",
    "lat": 10.632175,
    "lng": 105.663227,
    "province": "CAO LÃNH",
    "district": "Quan 8",
    "signalStrength": -78,
    "traffic": 255,
    "subscribers": 3888,
    "status": "offline",
    "uptime": 95.79,
    "lastUpdate": "2026-01-28T07:50:20.553Z",
    "alarms": 0,
    "capacity": 72
  },
  {
    "id": "BTS_MTO_136",
    "name": "Tram MỸ THO 136",
    "type": "5G",
    "lat": 10.393504,
    "lng": 106.409741,
    "province": "MỸ THO",
    "district": "Quan 6",
    "signalStrength": -54,
    "traffic": 467,
    "subscribers": 706,
    "status": "warning",
    "uptime": 98.98,
    "lastUpdate": "2026-01-28T08:09:48.523Z",
    "alarms": 4,
    "capacity": 47
  },
  {
    "id": "BTS_CLH_137",
    "name": "Tram CAO LÃNH 137",
    "type": "2G",
    "lat": 10.586693,
    "lng": 105.707635,
    "province": "CAO LÃNH",
    "district": "Quan 2",
    "signalStrength": -78,
    "traffic": 95,
    "subscribers": 4306,
    "status": "warning",
    "uptime": 95.81,
    "lastUpdate": "2026-01-28T07:58:55.008Z",
    "alarms": 2,
    "capacity": 66
  },
  {
    "id": "BTS_GCG_138",
    "name": "Tram GÒ CÔNG 138",
    "type": "2G",
    "lat": 10.311548,
    "lng": 106.703076,
    "province": "GÒ CÔNG",
    "district": "Quan 1",
    "signalStrength": -84,
    "traffic": 74,
    "subscribers": 2785,
    "status": "offline",
    "uptime": 97.17,
    "lastUpdate": "2026-01-28T07:31:32.859Z",
    "alarms": 0,
    "capacity": 46
  },
  {
    "id": "BTS_TNG_139",
    "name": "Tram TAM NÔNG 139",
    "type": "3G",
    "lat": 10.676832,
    "lng": 105.429438,
    "province": "TAM NÔNG",
    "district": "Quan 8",
    "signalStrength": -73,
    "traffic": 173,
    "subscribers": 4686,
    "status": "active",
    "uptime": 98.11,
    "lastUpdate": "2026-01-28T07:55:24.500Z",
    "alarms": 4,
    "capacity": 61
  },
  {
    "id": "BTS_CBE_140",
    "name": "Tram CÁI BÈ 140",
    "type": "2G",
    "lat": 10.45224,
    "lng": 105.966948,
    "province": "CÁI BÈ",
    "district": "Quan 9",
    "signalStrength": -92,
    "traffic": 146,
    "subscribers": 4688,
    "status": "warning",
    "uptime": 95.88,
    "lastUpdate": "2026-01-28T07:45:06.628Z",
    "alarms": 2,
    "capacity": 79
  },
  {
    "id": "BTS_HNU_141",
    "name": "Tram HỒNG NGỰ 141",
    "type": "4G",
    "lat": 10.926569,
    "lng": 105.60084,
    "province": "HỒNG NGỰ",
    "district": "Quan 8",
    "signalStrength": -72,
    "traffic": 201,
    "subscribers": 3930,
    "status": "offline",
    "uptime": 97.79,
    "lastUpdate": "2026-01-28T07:14:13.160Z",
    "alarms": 0,
    "capacity": 45
  },
  {
    "id": "BTS_GCG_142",
    "name": "Tram GÒ CÔNG 142",
    "type": "2G",
    "lat": 10.321973,
    "lng": 106.786004,
    "province": "GÒ CÔNG",
    "district": "Quan 8",
    "signalStrength": -81,
    "traffic": 163,
    "subscribers": 5325,
    "status": "warning",
    "uptime": 96.68,
    "lastUpdate": "2026-01-28T07:16:42.765Z",
    "alarms": 2,
    "capacity": 53
  },
  {
    "id": "BTS_CLH_143",
    "name": "Tram CAO LÃNH 143",
    "type": "4G",
    "lat": 10.645584,
    "lng": 105.693495,
    "province": "CAO LÃNH",
    "district": "Quan 10",
    "signalStrength": -77,
    "traffic": 501,
    "subscribers": 4801,
    "status": "warning",
    "uptime": 97.14,
    "lastUpdate": "2026-01-28T07:48:30.066Z",
    "alarms": 3,
    "capacity": 58
  },
  {
    "id": "BTS_CBE_144",
    "name": "Tram CÁI BÈ 144",
    "type": "5G",
    "lat": 10.402078,
    "lng": 105.867403,
    "province": "CÁI BÈ",
    "district": "Quan 10",
    "signalStrength": -69,
    "traffic": 471,
    "subscribers": 3933,
    "status": "warning",
    "uptime": 96.06,
    "lastUpdate": "2026-01-28T07:15:07.987Z",
    "alarms": 3,
    "capacity": 58
  },
  {
    "id": "BTS_TMI_145",
    "name": "Tram THÁP MƯỜI 145",
    "type": "5G",
    "lat": 10.706558,
    "lng": 105.777954,
    "province": "THÁP MƯỜI",
    "district": "Quan 4",
    "signalStrength": -51,
    "traffic": 488,
    "subscribers": 2181,
    "status": "active",
    "uptime": 99.14,
    "lastUpdate": "2026-01-28T07:33:55.178Z",
    "alarms": 4,
    "capacity": 58
  },
  {
    "id": "BTS_CLY_146",
    "name": "Tram CAI LẬY 146",
    "type": "4G",
    "lat": 10.44063,
    "lng": 106.020442,
    "province": "CAI LẬY",
    "district": "Quan 8",
    "signalStrength": -66,
    "traffic": 384,
    "subscribers": 607,
    "status": "active",
    "uptime": 99.89,
    "lastUpdate": "2026-01-28T07:30:41.317Z",
    "alarms": 3,
    "capacity": 77
  },
  {
    "id": "BTS_LVG_147",
    "name": "Tram LAI VUNG 147",
    "type": "4G",
    "lat": 10.427341,
    "lng": 105.504208,
    "province": "LAI VUNG",
    "district": "Quan 3",
    "signalStrength": -65,
    "traffic": 246,
    "subscribers": 1503,
    "status": "active",
    "uptime": 97.29,
    "lastUpdate": "2026-01-28T07:57:01.905Z",
    "alarms": 3,
    "capacity": 50
  },
  {
    "id": "BTS_MTH_148",
    "name": "Tram MỸ THỌ 148",
    "type": "2G",
    "lat": 10.436607,
    "lng": 105.703201,
    "province": "MỸ THỌ",
    "district": "Quan 7",
    "signalStrength": -73,
    "traffic": 417,
    "subscribers": 1233,
    "status": "offline",
    "uptime": 99.09,
    "lastUpdate": "2026-01-28T07:16:14.573Z",
    "alarms": 1,
    "capacity": 71
  },
  {
    "id": "BTS_TPC_149",
    "name": "Tram TÂN PHƯỚC 149",
    "type": "4G",
    "lat": 10.424885,
    "lng": 106.19214,
    "province": "TÂN PHƯỚC",
    "district": "Quan 9",
    "signalStrength": -66,
    "traffic": 263,
    "subscribers": 4643,
    "status": "active",
    "uptime": 95.21,
    "lastUpdate": "2026-01-28T07:46:40.080Z",
    "alarms": 0,
    "capacity": 72
  },
  {
    "id": "BTS_CLY_150",
    "name": "Tram CAI LẬY 150",
    "type": "2G",
    "lat": 10.472867,
    "lng": 106.183155,
    "province": "CAI LẬY",
    "district": "Quan 2",
    "signalStrength": -99,
    "traffic": 97,
    "subscribers": 4018,
    "status": "active",
    "uptime": 97.15,
    "lastUpdate": "2026-01-28T07:43:21.776Z",
    "alarms": 2,
    "capacity": 77
  },
  {
    "id": "BTS_GCG_151",
    "name": "Tram GÒ CÔNG 151",
    "type": "2G",
    "lat": 10.377425,
    "lng": 106.75663,
    "province": "GÒ CÔNG",
    "district": "Quan 2",
    "signalStrength": -77,
    "traffic": 225,
    "subscribers": 1198,
    "status": "warning",
    "uptime": 98.79,
    "lastUpdate": "2026-01-28T07:49:13.602Z",
    "alarms": 2,
    "capacity": 66
  },
  {
    "id": "BTS_CTH_152",
    "name": "Tram CHÂU THÀNH 152",
    "type": "2G",
    "lat": 10.455945,
    "lng": 106.316552,
    "province": "CHÂU THÀNH",
    "district": "Quan 4",
    "signalStrength": -99,
    "traffic": 286,
    "subscribers": 1844,
    "status": "active",
    "uptime": 95.04,
    "lastUpdate": "2026-01-28T07:14:44.502Z",
    "alarms": 2,
    "capacity": 46
  },
  {
    "id": "BTS_TNG_153",
    "name": "Tram TAM NÔNG 153",
    "type": "2G",
    "lat": 10.673854,
    "lng": 105.49639,
    "province": "TAM NÔNG",
    "district": "Quan 2",
    "signalStrength": -90,
    "traffic": 520,
    "subscribers": 2484,
    "status": "critical",
    "uptime": 99.31,
    "lastUpdate": "2026-01-28T07:20:11.853Z",
    "alarms": 3,
    "capacity": 42
  },
  {
    "id": "BTS_TMI_154",
    "name": "Tram THÁP MƯỜI 154",
    "type": "2G",
    "lat": 10.499477,
    "lng": 105.932175,
    "province": "THÁP MƯỜI",
    "district": "Quan 6",
    "signalStrength": -93,
    "traffic": 152,
    "subscribers": 5304,
    "status": "active",
    "uptime": 96.98,
    "lastUpdate": "2026-01-28T07:26:44.056Z",
    "alarms": 2,
    "capacity": 68
  },
  {
    "id": "BTS_TPC_155",
    "name": "Tram TÂN PHƯỚC 155",
    "type": "2G",
    "lat": 10.414863,
    "lng": 106.305744,
    "province": "TÂN PHƯỚC",
    "district": "Quan 2",
    "signalStrength": -96,
    "traffic": 185,
    "subscribers": 2751,
    "status": "active",
    "uptime": 98.11,
    "lastUpdate": "2026-01-28T08:02:01.678Z",
    "alarms": 1,
    "capacity": 40
  },
  {
    "id": "BTS_SDC_156",
    "name": "Tram SA ĐÉC 156",
    "type": "5G",
    "lat": 10.172004,
    "lng": 105.794538,
    "province": "SA ĐÉC",
    "district": "Quan 12",
    "signalStrength": -59,
    "traffic": 163,
    "subscribers": 2162,
    "status": "offline",
    "uptime": 96.98,
    "lastUpdate": "2026-01-28T07:38:45.358Z",
    "alarms": 4,
    "capacity": 77
  },
  {
    "id": "BTS_MTO_157",
    "name": "Tram MỸ THO 157",
    "type": "2G",
    "lat": 10.397911,
    "lng": 106.36331,
    "province": "MỸ THO",
    "district": "Quan 3",
    "signalStrength": -88,
    "traffic": 340,
    "subscribers": 4837,
    "status": "offline",
    "uptime": 95.77,
    "lastUpdate": "2026-01-28T07:57:19.540Z",
    "alarms": 2,
    "capacity": 51
  },
  {
    "id": "BTS_CGO_158",
    "name": "Tram CHỢ GẠO 158",
    "type": "3G",
    "lat": 10.331514,
    "lng": 106.487862,
    "province": "CHỢ GẠO",
    "district": "Quan 5",
    "signalStrength": -68,
    "traffic": 340,
    "subscribers": 575,
    "status": "offline",
    "uptime": 97.6,
    "lastUpdate": "2026-01-28T07:30:32.175Z",
    "alarms": 1,
    "capacity": 50
  },
  {
    "id": "BTS_GCG_159",
    "name": "Tram GÒ CÔNG 159",
    "type": "5G",
    "lat": 10.407549,
    "lng": 106.738279,
    "province": "GÒ CÔNG",
    "district": "Quan 2",
    "signalStrength": -66,
    "traffic": 517,
    "subscribers": 1902,
    "status": "offline",
    "uptime": 96.64,
    "lastUpdate": "2026-01-28T07:17:21.910Z",
    "alarms": 3,
    "capacity": 56
  },
  {
    "id": "BTS_MTH_160",
    "name": "Tram MỸ THỌ 160",
    "type": "5G",
    "lat": 10.471951,
    "lng": 105.804992,
    "province": "MỸ THỌ",
    "district": "Quan 4",
    "signalStrength": -65,
    "traffic": 341,
    "subscribers": 2917,
    "status": "offline",
    "uptime": 99.24,
    "lastUpdate": "2026-01-28T07:36:04.542Z",
    "alarms": 3,
    "capacity": 49
  },
  {
    "id": "BTS_CGO_161",
    "name": "Tram CHỢ GẠO 161",
    "type": "4G",
    "lat": 10.37384,
    "lng": 106.480611,
    "province": "CHỢ GẠO",
    "district": "Quan 4",
    "signalStrength": -76,
    "traffic": 537,
    "subscribers": 3049,
    "status": "active",
    "uptime": 98.66,
    "lastUpdate": "2026-01-28T07:57:23.822Z",
    "alarms": 0,
    "capacity": 79
  },
  {
    "id": "BTS_CTH_162",
    "name": "Tram CHÂU THÀNH 162",
    "type": "5G",
    "lat": 10.436286,
    "lng": 106.272211,
    "province": "CHÂU THÀNH",
    "district": "Quan 3",
    "signalStrength": -61,
    "traffic": 249,
    "subscribers": 3957,
    "status": "active",
    "uptime": 98.98,
    "lastUpdate": "2026-01-28T07:38:33.329Z",
    "alarms": 1,
    "capacity": 48
  },
  {
    "id": "BTS_MTO_163",
    "name": "Tram MỸ THO 163",
    "type": "4G",
    "lat": 10.405675,
    "lng": 106.306798,
    "province": "MỸ THO",
    "district": "Quan 10",
    "signalStrength": -64,
    "traffic": 182,
    "subscribers": 3537,
    "status": "offline",
    "uptime": 95.64,
    "lastUpdate": "2026-01-28T07:41:22.762Z",
    "alarms": 2,
    "capacity": 69
  },
  {
    "id": "BTS_TMI_164",
    "name": "Tram THÁP MƯỜI 164",
    "type": "4G",
    "lat": 10.605253,
    "lng": 105.918182,
    "province": "THÁP MƯỜI",
    "district": "Quan 7",
    "signalStrength": -62,
    "traffic": 108,
    "subscribers": 3977,
    "status": "active",
    "uptime": 96.45,
    "lastUpdate": "2026-01-28T07:46:30.568Z",
    "alarms": 1,
    "capacity": 71
  },
  {
    "id": "BTS_HNU_165",
    "name": "Tram HỒNG NGỰ 165",
    "type": "4G",
    "lat": 10.722442,
    "lng": 105.367454,
    "province": "HỒNG NGỰ",
    "district": "Quan 5",
    "signalStrength": -73,
    "traffic": 99,
    "subscribers": 4316,
    "status": "offline",
    "uptime": 95.63,
    "lastUpdate": "2026-01-28T07:47:20.665Z",
    "alarms": 0,
    "capacity": 75
  },
  {
    "id": "BTS_CGO_166",
    "name": "Tram CHỢ GẠO 166",
    "type": "4G",
    "lat": 10.366405,
    "lng": 106.504688,
    "province": "CHỢ GẠO",
    "district": "Quan 1",
    "signalStrength": -77,
    "traffic": 64,
    "subscribers": 3332,
    "status": "active",
    "uptime": 96.39,
    "lastUpdate": "2026-01-28T07:56:55.661Z",
    "alarms": 3,
    "capacity": 46
  },
  {
    "id": "BTS_CTH_167",
    "name": "Tram CHÂU THÀNH 167",
    "type": "2G",
    "lat": 10.314555,
    "lng": 106.31817,
    "province": "CHÂU THÀNH",
    "district": "Quan 3",
    "signalStrength": -91,
    "traffic": 481,
    "subscribers": 857,
    "status": "active",
    "uptime": 96.18,
    "lastUpdate": "2026-01-28T07:15:47.473Z",
    "alarms": 3,
    "capacity": 48
  },
  {
    "id": "BTS_TPC_168",
    "name": "Tram TÂN PHƯỚC 168",
    "type": "4G",
    "lat": 10.584905,
    "lng": 106.268074,
    "province": "TÂN PHƯỚC",
    "district": "Quan 9",
    "signalStrength": -65,
    "traffic": 442,
    "subscribers": 1669,
    "status": "warning",
    "uptime": 97.85,
    "lastUpdate": "2026-01-28T08:04:56.770Z",
    "alarms": 3,
    "capacity": 74
  },
  {
    "id": "BTS_MTO_169",
    "name": "Tram MỸ THO 169",
    "type": "4G",
    "lat": 10.369522,
    "lng": 106.288173,
    "province": "MỸ THO",
    "district": "Quan 1",
    "signalStrength": -67,
    "traffic": 288,
    "subscribers": 3854,
    "status": "active",
    "uptime": 96.28,
    "lastUpdate": "2026-01-28T07:42:26.649Z",
    "alarms": 3,
    "capacity": 75
  },
  {
    "id": "BTS_GCG_170",
    "name": "Tram GÒ CÔNG 170",
    "type": "4G",
    "lat": 10.462389,
    "lng": 106.634594,
    "province": "GÒ CÔNG",
    "district": "Quan 3",
    "signalStrength": -74,
    "traffic": 403,
    "subscribers": 2425,
    "status": "offline",
    "uptime": 99.85,
    "lastUpdate": "2026-01-28T07:13:14.409Z",
    "alarms": 3,
    "capacity": 52
  },
  {
    "id": "BTS_MTO_171",
    "name": "Tram MỸ THO 171",
    "type": "5G",
    "lat": 10.335739,
    "lng": 106.37013,
    "province": "MỸ THO",
    "district": "Quan 2",
    "signalStrength": -58,
    "traffic": 347,
    "subscribers": 4856,
    "status": "active",
    "uptime": 98.77,
    "lastUpdate": "2026-01-28T07:36:17.490Z",
    "alarms": 4,
    "capacity": 47
  },
  {
    "id": "BTS_TNG_172",
    "name": "Tram TAM NÔNG 172",
    "type": "2G",
    "lat": 10.794729,
    "lng": 105.620563,
    "province": "TAM NÔNG",
    "district": "Quan 1",
    "signalStrength": -85,
    "traffic": 393,
    "subscribers": 4984,
    "status": "active",
    "uptime": 96.12,
    "lastUpdate": "2026-01-28T07:25:11.019Z",
    "alarms": 2,
    "capacity": 59
  },
  {
    "id": "BTS_CLH_173",
    "name": "Tram CAO LÃNH 173",
    "type": "3G",
    "lat": 10.444735,
    "lng": 105.561776,
    "province": "CAO LÃNH",
    "district": "Quan 5",
    "signalStrength": -90,
    "traffic": 303,
    "subscribers": 1644,
    "status": "offline",
    "uptime": 97.35,
    "lastUpdate": "2026-01-28T07:18:25.125Z",
    "alarms": 3,
    "capacity": 47
  },
  {
    "id": "BTS_MTH_174",
    "name": "Tram MỸ THỌ 174",
    "type": "2G",
    "lat": 10.423163,
    "lng": 105.826632,
    "province": "MỸ THỌ",
    "district": "Quan 9",
    "signalStrength": -81,
    "traffic": 256,
    "subscribers": 4739,
    "status": "active",
    "uptime": 98.38,
    "lastUpdate": "2026-01-28T07:43:14.881Z",
    "alarms": 0,
    "capacity": 60
  },
  {
    "id": "BTS_MTH_175",
    "name": "Tram MỸ THỌ 175",
    "type": "4G",
    "lat": 10.442605,
    "lng": 105.81039,
    "province": "MỸ THỌ",
    "district": "Quan 8",
    "signalStrength": -69,
    "traffic": 338,
    "subscribers": 2309,
    "status": "warning",
    "uptime": 99.03,
    "lastUpdate": "2026-01-28T07:29:04.483Z",
    "alarms": 0,
    "capacity": 79
  },
  {
    "id": "BTS_CBE_176",
    "name": "Tram CÁI BÈ 176",
    "type": "2G",
    "lat": 10.358664,
    "lng": 105.820917,
    "province": "CÁI BÈ",
    "district": "Quan 1",
    "signalStrength": -89,
    "traffic": 76,
    "subscribers": 4372,
    "status": "critical",
    "uptime": 97.7,
    "lastUpdate": "2026-01-28T07:20:42.144Z",
    "alarms": 4,
    "capacity": 40
  },
  {
    "id": "BTS_TPC_177",
    "name": "Tram TÂN PHƯỚC 177",
    "type": "4G",
    "lat": 10.493685,
    "lng": 106.117634,
    "province": "TÂN PHƯỚC",
    "district": "Quan 12",
    "signalStrength": -58,
    "traffic": 104,
    "subscribers": 2636,
    "status": "active",
    "uptime": 97.25,
    "lastUpdate": "2026-01-28T07:50:55.339Z",
    "alarms": 3,
    "capacity": 54
  },
  {
    "id": "BTS_SDC_178",
    "name": "Tram SA ĐÉC 178",
    "type": "5G",
    "lat": 10.161413,
    "lng": 105.798101,
    "province": "SA ĐÉC",
    "district": "Quan 3",
    "signalStrength": -54,
    "traffic": 287,
    "subscribers": 4631,
    "status": "active",
    "uptime": 96.86,
    "lastUpdate": "2026-01-28T07:37:30.516Z",
    "alarms": 2,
    "capacity": 68
  },
  {
    "id": "BTS_LVG_179",
    "name": "Tram LAI VUNG 179",
    "type": "3G",
    "lat": 10.417598,
    "lng": 105.586049,
    "province": "LAI VUNG",
    "district": "Quan 5",
    "signalStrength": -93,
    "traffic": 410,
    "subscribers": 505,
    "status": "active",
    "uptime": 95.23,
    "lastUpdate": "2026-01-28T07:54:46.746Z",
    "alarms": 4,
    "capacity": 63
  },
  {
    "id": "BTS_CBE_180",
    "name": "Tram CÁI BÈ 180",
    "type": "5G",
    "lat": 10.365424,
    "lng": 105.871343,
    "province": "CÁI BÈ",
    "district": "Quan 4",
    "signalStrength": -68,
    "traffic": 374,
    "subscribers": 669,
    "status": "offline",
    "uptime": 95.83,
    "lastUpdate": "2026-01-28T07:15:17.499Z",
    "alarms": 2,
    "capacity": 57
  },
  {
    "id": "BTS_CTH_181",
    "name": "Tram CHÂU THÀNH 181",
    "type": "5G",
    "lat": 10.392746,
    "lng": 106.210966,
    "province": "CHÂU THÀNH",
    "district": "Quan 6",
    "signalStrength": -60,
    "traffic": 204,
    "subscribers": 802,
    "status": "warning",
    "uptime": 97.96,
    "lastUpdate": "2026-01-28T07:21:14.007Z",
    "alarms": 4,
    "capacity": 44
  },
  {
    "id": "BTS_CBE_182",
    "name": "Tram CÁI BÈ 182",
    "type": "5G",
    "lat": 10.536004,
    "lng": 105.981835,
    "province": "CÁI BÈ",
    "district": "Quan 3",
    "signalStrength": -69,
    "traffic": 406,
    "subscribers": 1229,
    "status": "warning",
    "uptime": 98.24,
    "lastUpdate": "2026-01-28T07:12:32.800Z",
    "alarms": 4,
    "capacity": 74
  },
  {
    "id": "BTS_GCT_183",
    "name": "Tram GÒ CÔNG TÂY 183",
    "type": "4G",
    "lat": 10.218824,
    "lng": 106.796272,
    "province": "GÒ CÔNG TÂY",
    "district": "Quan 3",
    "signalStrength": -68,
    "traffic": 195,
    "subscribers": 4460,
    "status": "offline",
    "uptime": 99.4,
    "lastUpdate": "2026-01-28T07:30:31.134Z",
    "alarms": 2,
    "capacity": 46
  },
  {
    "id": "BTS_TBH_184",
    "name": "Tram THANH BÌNH 184",
    "type": "5G",
    "lat": 10.656895,
    "lng": 105.546019,
    "province": "THANH BÌNH",
    "district": "Quan 6",
    "signalStrength": -62,
    "traffic": 253,
    "subscribers": 1654,
    "status": "active",
    "uptime": 98.54,
    "lastUpdate": "2026-01-28T07:12:15.808Z",
    "alarms": 1,
    "capacity": 54
  },
  {
    "id": "BTS_MTH_185",
    "name": "Tram MỸ THỌ 185",
    "type": "2G",
    "lat": 10.429699,
    "lng": 105.792052,
    "province": "MỸ THỌ",
    "district": "Quan 1",
    "signalStrength": -99,
    "traffic": 508,
    "subscribers": 560,
    "status": "warning",
    "uptime": 99.04,
    "lastUpdate": "2026-01-28T07:24:45.850Z",
    "alarms": 2,
    "capacity": 43
  },
  {
    "id": "BTS_LVG_186",
    "name": "Tram LAI VUNG 186",
    "type": "5G",
    "lat": 10.228929,
    "lng": 105.652983,
    "province": "LAI VUNG",
    "district": "Quan 3",
    "signalStrength": -78,
    "traffic": 225,
    "subscribers": 4283,
    "status": "offline",
    "uptime": 95.81,
    "lastUpdate": "2026-01-28T07:30:42.260Z",
    "alarms": 2,
    "capacity": 47
  },
  {
    "id": "BTS_TMI_187",
    "name": "Tram THÁP MƯỜI 187",
    "type": "2G",
    "lat": 10.550123,
    "lng": 105.850906,
    "province": "THÁP MƯỜI",
    "district": "Quan 8",
    "signalStrength": -93,
    "traffic": 453,
    "subscribers": 578,
    "status": "active",
    "uptime": 98.07,
    "lastUpdate": "2026-01-28T07:39:23.103Z",
    "alarms": 4,
    "capacity": 70
  },
  {
    "id": "BTS_GCG_188",
    "name": "Tram GÒ CÔNG 188",
    "type": "2G",
    "lat": 10.485104,
    "lng": 106.749407,
    "province": "GÒ CÔNG",
    "district": "Quan 3",
    "signalStrength": -79,
    "traffic": 544,
    "subscribers": 1874,
    "status": "active",
    "uptime": 98.6,
    "lastUpdate": "2026-01-28T08:08:23.787Z",
    "alarms": 4,
    "capacity": 45
  },
  {
    "id": "BTS_CLY_189",
    "name": "Tram CAI LẬY 189",
    "type": "2G",
    "lat": 10.496027,
    "lng": 106.204992,
    "province": "CAI LẬY",
    "district": "Quan 4",
    "signalStrength": -71,
    "traffic": 71,
    "subscribers": 5425,
    "status": "active",
    "uptime": 95.33,
    "lastUpdate": "2026-01-28T07:43:28.206Z",
    "alarms": 4,
    "capacity": 74
  },
  {
    "id": "BTS_HNU_190",
    "name": "Tram HỒNG NGỰ 190",
    "type": "4G",
    "lat": 10.824236,
    "lng": 105.539088,
    "province": "HỒNG NGỰ",
    "district": "Quan 6",
    "signalStrength": -57,
    "traffic": 84,
    "subscribers": 1046,
    "status": "warning",
    "uptime": 98.77,
    "lastUpdate": "2026-01-28T07:39:49.268Z",
    "alarms": 4,
    "capacity": 71
  },
  {
    "id": "BTS_LVG_191",
    "name": "Tram LAI VUNG 191",
    "type": "3G",
    "lat": 10.197045,
    "lng": 105.664351,
    "province": "LAI VUNG",
    "district": "Quan 8",
    "signalStrength": -93,
    "traffic": 437,
    "subscribers": 5016,
    "status": "warning",
    "uptime": 95.96,
    "lastUpdate": "2026-01-28T07:45:17.450Z",
    "alarms": 0,
    "capacity": 64
  },
  {
    "id": "BTS_TPC_192",
    "name": "Tram TÂN PHƯỚC 192",
    "type": "3G",
    "lat": 10.505441,
    "lng": 106.132864,
    "province": "TÂN PHƯỚC",
    "district": "Quan 3",
    "signalStrength": -93,
    "traffic": 540,
    "subscribers": 4281,
    "status": "active",
    "uptime": 99.49,
    "lastUpdate": "2026-01-28T07:23:11.419Z",
    "alarms": 2,
    "capacity": 41
  },
  {
    "id": "BTS_MTO_193",
    "name": "Tram MỸ THO 193",
    "type": "2G",
    "lat": 10.359073,
    "lng": 106.385197,
    "province": "MỸ THO",
    "district": "Quan 11",
    "signalStrength": -93,
    "traffic": 493,
    "subscribers": 3911,
    "status": "active",
    "uptime": 96.59,
    "lastUpdate": "2026-01-28T07:46:58.908Z",
    "alarms": 0,
    "capacity": 48
  },
  {
    "id": "BTS_GCT_194",
    "name": "Tram GÒ CÔNG TÂY 194",
    "type": "3G",
    "lat": 10.220568,
    "lng": 106.795263,
    "province": "GÒ CÔNG TÂY",
    "district": "Quan 8",
    "signalStrength": -92,
    "traffic": 219,
    "subscribers": 4279,
    "status": "warning",
    "uptime": 97.64,
    "lastUpdate": "2026-01-28T07:12:25.035Z",
    "alarms": 2,
    "capacity": 72
  },
  {
    "id": "BTS_CGO_195",
    "name": "Tram CHỢ GẠO 195",
    "type": "5G",
    "lat": 10.428304,
    "lng": 106.348973,
    "province": "CHỢ GẠO",
    "district": "Quan 3",
    "signalStrength": -59,
    "traffic": 524,
    "subscribers": 3005,
    "status": "active",
    "uptime": 99.88,
    "lastUpdate": "2026-01-28T08:07:31.497Z",
    "alarms": 2,
    "capacity": 79
  },
  {
    "id": "BTS_CLH_196",
    "name": "Tram CAO LÃNH 196",
    "type": "4G",
    "lat": 10.430744,
    "lng": 105.593114,
    "province": "CAO LÃNH",
    "district": "Quan 4",
    "signalStrength": -80,
    "traffic": 548,
    "subscribers": 5495,
    "status": "active",
    "uptime": 97.47,
    "lastUpdate": "2026-01-28T08:03:36.769Z",
    "alarms": 0,
    "capacity": 69
  },
  {
    "id": "BTS_SDC_197",
    "name": "Tram SA ĐÉC 197",
    "type": "2G",
    "lat": 10.341849,
    "lng": 105.748001,
    "province": "SA ĐÉC",
    "district": "Quan 12",
    "signalStrength": -82,
    "traffic": 296,
    "subscribers": 5218,
    "status": "active",
    "uptime": 95.52,
    "lastUpdate": "2026-01-28T08:09:09.924Z",
    "alarms": 1,
    "capacity": 55
  },
  {
    "id": "BTS_CBE_198",
    "name": "Tram CÁI BÈ 198",
    "type": "4G",
    "lat": 10.346917,
    "lng": 105.951045,
    "province": "CÁI BÈ",
    "district": "Quan 5",
    "signalStrength": -61,
    "traffic": 194,
    "subscribers": 3679,
    "status": "active",
    "uptime": 99.19,
    "lastUpdate": "2026-01-28T07:43:49.102Z",
    "alarms": 1,
    "capacity": 55
  },
  {
    "id": "BTS_GCT_199",
    "name": "Tram GÒ CÔNG TÂY 199",
    "type": "3G",
    "lat": 10.217502,
    "lng": 106.794445,
    "province": "GÒ CÔNG TÂY",
    "district": "Quan 9",
    "signalStrength": -66,
    "traffic": 330,
    "subscribers": 1763,
    "status": "warning",
    "uptime": 95.11,
    "lastUpdate": "2026-01-28T07:23:17.155Z",
    "alarms": 0,
    "capacity": 64
  },
  {
    "id": "BTS_GCG_200",
    "name": "Tram GÒ CÔNG 200",
    "type": "5G",
    "lat": 10.285555,
    "lng": 106.738443,
    "province": "GÒ CÔNG",
    "district": "Quan 7",
    "signalStrength": -60,
    "traffic": 519,
    "subscribers": 3251,
    "status": "warning",
    "uptime": 96.8,
    "lastUpdate": "2026-01-28T07:19:07.469Z",
    "alarms": 3,
    "capacity": 64
  },
  {
    "id": "BTS_SDC_201",
    "name": "Tram SA ĐÉC 201",
    "type": "3G",
    "lat": 10.249608,
    "lng": 105.741857,
    "province": "SA ĐÉC",
    "district": "Quan 12",
    "signalStrength": -68,
    "traffic": 384,
    "subscribers": 2867,
    "status": "warning",
    "uptime": 96,
    "lastUpdate": "2026-01-28T07:30:11.260Z",
    "alarms": 2,
    "capacity": 63
  },
  {
    "id": "BTS_TBH_202",
    "name": "Tram THANH BÌNH 202",
    "type": "4G",
    "lat": 10.663089,
    "lng": 105.504288,
    "province": "THANH BÌNH",
    "district": "Quan 1",
    "signalStrength": -67,
    "traffic": 543,
    "subscribers": 1092,
    "status": "active",
    "uptime": 99.97,
    "lastUpdate": "2026-01-28T07:13:53.813Z",
    "alarms": 0,
    "capacity": 42
  },
  {
    "id": "BTS_CGO_203",
    "name": "Tram CHỢ GẠO 203",
    "type": "2G",
    "lat": 10.333478,
    "lng": 106.542215,
    "province": "CHỢ GẠO",
    "district": "Quan 10",
    "signalStrength": -81,
    "traffic": 522,
    "subscribers": 2590,
    "status": "active",
    "uptime": 96.96,
    "lastUpdate": "2026-01-28T08:09:30.868Z",
    "alarms": 3,
    "capacity": 79
  },
  {
    "id": "BTS_TMI_204",
    "name": "Tram THÁP MƯỜI 204",
    "type": "3G",
    "lat": 10.503491,
    "lng": 105.762525,
    "province": "THÁP MƯỜI",
    "district": "Quan 12",
    "signalStrength": -93,
    "traffic": 356,
    "subscribers": 704,
    "status": "warning",
    "uptime": 99.41,
    "lastUpdate": "2026-01-28T07:36:01.209Z",
    "alarms": 2,
    "capacity": 65
  },
  {
    "id": "BTS_SDC_205",
    "name": "Tram SA ĐÉC 205",
    "type": "5G",
    "lat": 10.258882,
    "lng": 105.857371,
    "province": "SA ĐÉC",
    "district": "Quan 5",
    "signalStrength": -52,
    "traffic": 211,
    "subscribers": 1355,
    "status": "offline",
    "uptime": 95.96,
    "lastUpdate": "2026-01-28T07:49:10.200Z",
    "alarms": 2,
    "capacity": 70
  },
  {
    "id": "BTS_CGO_206",
    "name": "Tram CHỢ GẠO 206",
    "type": "5G",
    "lat": 10.469248,
    "lng": 106.366182,
    "province": "CHỢ GẠO",
    "district": "Quan 6",
    "signalStrength": -71,
    "traffic": 464,
    "subscribers": 1367,
    "status": "offline",
    "uptime": 95.16,
    "lastUpdate": "2026-01-28T08:06:06.477Z",
    "alarms": 0,
    "capacity": 44
  },
  {
    "id": "BTS_TMI_207",
    "name": "Tram THÁP MƯỜI 207",
    "type": "3G",
    "lat": 10.515651,
    "lng": 105.936286,
    "province": "THÁP MƯỜI",
    "district": "Quan 9",
    "signalStrength": -92,
    "traffic": 180,
    "subscribers": 5066,
    "status": "critical",
    "uptime": 95.25,
    "lastUpdate": "2026-01-28T07:41:32.495Z",
    "alarms": 1,
    "capacity": 45
  },
  {
    "id": "BTS_TMI_208",
    "name": "Tram THÁP MƯỜI 208",
    "type": "2G",
    "lat": 10.6616,
    "lng": 105.642079,
    "province": "THÁP MƯỜI",
    "district": "Quan 5",
    "signalStrength": -88,
    "traffic": 540,
    "subscribers": 1307,
    "status": "active",
    "uptime": 97.31,
    "lastUpdate": "2026-01-28T07:28:32.678Z",
    "alarms": 4,
    "capacity": 53
  },
  {
    "id": "BTS_HNU_209",
    "name": "Tram HỒNG NGỰ 209",
    "type": "2G",
    "lat": 10.845976,
    "lng": 105.6034,
    "province": "HỒNG NGỰ",
    "district": "Quan 7",
    "signalStrength": -91,
    "traffic": 52,
    "subscribers": 1456,
    "status": "active",
    "uptime": 99.9,
    "lastUpdate": "2026-01-28T07:18:27.471Z",
    "alarms": 4,
    "capacity": 43
  },
  {
    "id": "BTS_CTH_210",
    "name": "Tram CHÂU THÀNH 210",
    "type": "5G",
    "lat": 10.357925,
    "lng": 106.185258,
    "province": "CHÂU THÀNH",
    "district": "Quan 5",
    "signalStrength": -73,
    "traffic": 376,
    "subscribers": 5114,
    "status": "critical",
    "uptime": 96.87,
    "lastUpdate": "2026-01-28T07:39:37.124Z",
    "alarms": 2,
    "capacity": 52
  },
  {
    "id": "BTS_HNU_211",
    "name": "Tram HỒNG NGỰ 211",
    "type": "3G",
    "lat": 10.73678,
    "lng": 105.195041,
    "province": "HỒNG NGỰ",
    "district": "Quan 10",
    "signalStrength": -70,
    "traffic": 375,
    "subscribers": 4751,
    "status": "active",
    "uptime": 98.78,
    "lastUpdate": "2026-01-28T07:52:09.859Z",
    "alarms": 3,
    "capacity": 56
  },
  {
    "id": "BTS_TBH_212",
    "name": "Tram THANH BÌNH 212",
    "type": "3G",
    "lat": 10.642817,
    "lng": 105.38865,
    "province": "THANH BÌNH",
    "district": "Quan 9",
    "signalStrength": -91,
    "traffic": 315,
    "subscribers": 1081,
    "status": "active",
    "uptime": 98.37,
    "lastUpdate": "2026-01-28T07:49:28.427Z",
    "alarms": 3,
    "capacity": 50
  },
  {
    "id": "BTS_GCT_213",
    "name": "Tram GÒ CÔNG TÂY 213",
    "type": "5G",
    "lat": 10.207124,
    "lng": 106.786082,
    "province": "GÒ CÔNG TÂY",
    "district": "Quan 8",
    "signalStrength": -80,
    "traffic": 273,
    "subscribers": 955,
    "status": "warning",
    "uptime": 96.34,
    "lastUpdate": "2026-01-28T07:27:27.976Z",
    "alarms": 0,
    "capacity": 68
  },
  {
    "id": "BTS_MTH_214",
    "name": "Tram MỸ THỌ 214",
    "type": "5G",
    "lat": 10.334476,
    "lng": 105.758143,
    "province": "MỸ THỌ",
    "district": "Quan 10",
    "signalStrength": -60,
    "traffic": 268,
    "subscribers": 5188,
    "status": "active",
    "uptime": 99.17,
    "lastUpdate": "2026-01-28T07:12:46.793Z",
    "alarms": 3,
    "capacity": 77
  },
  {
    "id": "BTS_GCG_215",
    "name": "Tram GÒ CÔNG 215",
    "type": "5G",
    "lat": 10.343613,
    "lng": 106.711058,
    "province": "GÒ CÔNG",
    "district": "Quan 5",
    "signalStrength": -79,
    "traffic": 211,
    "subscribers": 5166,
    "status": "warning",
    "uptime": 99.75,
    "lastUpdate": "2026-01-28T07:50:10.560Z",
    "alarms": 3,
    "capacity": 62
  },
  {
    "id": "BTS_HNU_216",
    "name": "Tram HỒNG NGỰ 216",
    "type": "5G",
    "lat": 10.91634,
    "lng": 105.206546,
    "province": "HỒNG NGỰ",
    "district": "Quan 1",
    "signalStrength": -69,
    "traffic": 461,
    "subscribers": 675,
    "status": "critical",
    "uptime": 95.56,
    "lastUpdate": "2026-01-28T07:27:15.888Z",
    "alarms": 2,
    "capacity": 46
  },
  {
    "id": "BTS_CLH_217",
    "name": "Tram CAO LÃNH 217",
    "type": "5G",
    "lat": 10.597297,
    "lng": 105.715402,
    "province": "CAO LÃNH",
    "district": "Quan 9",
    "signalStrength": -66,
    "traffic": 186,
    "subscribers": 776,
    "status": "critical",
    "uptime": 97.19,
    "lastUpdate": "2026-01-28T07:32:13.034Z",
    "alarms": 0,
    "capacity": 76
  },
  {
    "id": "BTS_TMI_218",
    "name": "Tram THÁP MƯỜI 218",
    "type": "2G",
    "lat": 10.412161,
    "lng": 105.764815,
    "province": "THÁP MƯỜI",
    "district": "Quan 4",
    "signalStrength": -78,
    "traffic": 470,
    "subscribers": 4593,
    "status": "offline",
    "uptime": 97.38,
    "lastUpdate": "2026-01-28T08:02:06.310Z",
    "alarms": 2,
    "capacity": 49
  },
  {
    "id": "BTS_CLH_219",
    "name": "Tram CAO LÃNH 219",
    "type": "3G",
    "lat": 10.521513,
    "lng": 105.717769,
    "province": "CAO LÃNH",
    "district": "Quan 2",
    "signalStrength": -66,
    "traffic": 241,
    "subscribers": 3032,
    "status": "active",
    "uptime": 98.65,
    "lastUpdate": "2026-01-28T08:04:13.171Z",
    "alarms": 0,
    "capacity": 55
  },
  {
    "id": "BTS_CLY_220",
    "name": "Tram CAI LẬY 220",
    "type": "2G",
    "lat": 10.491125,
    "lng": 106.031413,
    "province": "CAI LẬY",
    "district": "Quan 8",
    "signalStrength": -100,
    "traffic": 90,
    "subscribers": 3805,
    "status": "active",
    "uptime": 99.57,
    "lastUpdate": "2026-01-28T07:46:00.950Z",
    "alarms": 3,
    "capacity": 52
  },
  {
    "id": "BTS_HNU_221",
    "name": "Tram HỒNG NGỰ 221",
    "type": "5G",
    "lat": 10.726222,
    "lng": 105.283958,
    "province": "HỒNG NGỰ",
    "district": "Quan 12",
    "signalStrength": -63,
    "traffic": 211,
    "subscribers": 3447,
    "status": "active",
    "uptime": 96.53,
    "lastUpdate": "2026-01-28T07:26:19.029Z",
    "alarms": 1,
    "capacity": 67
  },
  {
    "id": "BTS_CGO_222",
    "name": "Tram CHỢ GẠO 222",
    "type": "4G",
    "lat": 10.337587,
    "lng": 106.471008,
    "province": "CHỢ GẠO",
    "district": "Quan 5",
    "signalStrength": -67,
    "traffic": 375,
    "subscribers": 3775,
    "status": "warning",
    "uptime": 99.79,
    "lastUpdate": "2026-01-28T08:02:58.785Z",
    "alarms": 3,
    "capacity": 40
  },
  {
    "id": "BTS_LVG_223",
    "name": "Tram LAI VUNG 223",
    "type": "3G",
    "lat": 10.157842,
    "lng": 105.513255,
    "province": "LAI VUNG",
    "district": "Quan 7",
    "signalStrength": -94,
    "traffic": 87,
    "subscribers": 4889,
    "status": "offline",
    "uptime": 95.23,
    "lastUpdate": "2026-01-28T07:19:07.151Z",
    "alarms": 0,
    "capacity": 76
  },
  {
    "id": "BTS_MTO_224",
    "name": "Tram MỸ THO 224",
    "type": "3G",
    "lat": 10.39766,
    "lng": 106.38381,
    "province": "MỸ THO",
    "district": "Quan 5",
    "signalStrength": -71,
    "traffic": 475,
    "subscribers": 3922,
    "status": "active",
    "uptime": 98.19,
    "lastUpdate": "2026-01-28T08:03:42.255Z",
    "alarms": 1,
    "capacity": 48
  },
  {
    "id": "BTS_TMI_225",
    "name": "Tram THÁP MƯỜI 225",
    "type": "2G",
    "lat": 10.473674,
    "lng": 105.756636,
    "province": "THÁP MƯỜI",
    "district": "Quan 10",
    "signalStrength": -85,
    "traffic": 374,
    "subscribers": 4761,
    "status": "critical",
    "uptime": 96.77,
    "lastUpdate": "2026-01-28T07:49:56.167Z",
    "alarms": 3,
    "capacity": 44
  },
  {
    "id": "BTS_TBH_226",
    "name": "Tram THANH BÌNH 226",
    "type": "3G",
    "lat": 10.539944,
    "lng": 105.423683,
    "province": "THANH BÌNH",
    "district": "Quan 9",
    "signalStrength": -75,
    "traffic": 435,
    "subscribers": 4308,
    "status": "active",
    "uptime": 98.84,
    "lastUpdate": "2026-01-28T07:54:40.680Z",
    "alarms": 0,
    "capacity": 68
  },
  {
    "id": "BTS_GCT_227",
    "name": "Tram GÒ CÔNG TÂY 227",
    "type": "2G",
    "lat": 10.211342,
    "lng": 106.791947,
    "province": "GÒ CÔNG TÂY",
    "district": "Quan 12",
    "signalStrength": -81,
    "traffic": 105,
    "subscribers": 4811,
    "status": "active",
    "uptime": 95.36,
    "lastUpdate": "2026-01-28T08:00:33.834Z",
    "alarms": 0,
    "capacity": 76
  },
  {
    "id": "BTS_TNG_228",
    "name": "Tram TAM NÔNG 228",
    "type": "5G",
    "lat": 10.72673,
    "lng": 105.383256,
    "province": "TAM NÔNG",
    "district": "Quan 7",
    "signalStrength": -77,
    "traffic": 87,
    "subscribers": 1093,
    "status": "active",
    "uptime": 99.53,
    "lastUpdate": "2026-01-28T08:08:10.085Z",
    "alarms": 1,
    "capacity": 65
  },
  {
    "id": "BTS_MTO_229",
    "name": "Tram MỸ THO 229",
    "type": "2G",
    "lat": 10.31797,
    "lng": 106.23792,
    "province": "MỸ THO",
    "district": "Quan 1",
    "signalStrength": -88,
    "traffic": 94,
    "subscribers": 1404,
    "status": "active",
    "uptime": 98.86,
    "lastUpdate": "2026-01-28T07:27:13.850Z",
    "alarms": 3,
    "capacity": 75
  },
  {
    "id": "BTS_GCG_230",
    "name": "Tram GÒ CÔNG 230",
    "type": "5G",
    "lat": 10.270134,
    "lng": 106.722203,
    "province": "GÒ CÔNG",
    "district": "Quan 9",
    "signalStrength": -73,
    "traffic": 139,
    "subscribers": 2251,
    "status": "active",
    "uptime": 99.46,
    "lastUpdate": "2026-01-28T08:05:52.958Z",
    "alarms": 1,
    "capacity": 54
  },
  {
    "id": "BTS_CGO_231",
    "name": "Tram CHỢ GẠO 231",
    "type": "5G",
    "lat": 10.376481,
    "lng": 106.490404,
    "province": "CHỢ GẠO",
    "district": "Quan 4",
    "signalStrength": -71,
    "traffic": 515,
    "subscribers": 1260,
    "status": "active",
    "uptime": 97.7,
    "lastUpdate": "2026-01-28T07:39:00.502Z",
    "alarms": 3,
    "capacity": 56
  },
  {
    "id": "BTS_CTH_232",
    "name": "Tram CHÂU THÀNH 232",
    "type": "5G",
    "lat": 10.387594,
    "lng": 106.338129,
    "province": "CHÂU THÀNH",
    "district": "Quan 6",
    "signalStrength": -66,
    "traffic": 317,
    "subscribers": 4711,
    "status": "warning",
    "uptime": 97.54,
    "lastUpdate": "2026-01-28T07:39:39.923Z",
    "alarms": 4,
    "capacity": 65
  },
  {
    "id": "BTS_MTO_233",
    "name": "Tram MỸ THO 233",
    "type": "3G",
    "lat": 10.344725,
    "lng": 106.233289,
    "province": "MỸ THO",
    "district": "Quan 4",
    "signalStrength": -74,
    "traffic": 269,
    "subscribers": 2172,
    "status": "active",
    "uptime": 99.61,
    "lastUpdate": "2026-01-28T07:55:11.232Z",
    "alarms": 4,
    "capacity": 52
  },
  {
    "id": "BTS_HNU_234",
    "name": "Tram HỒNG NGỰ 234",
    "type": "5G",
    "lat": 10.696309,
    "lng": 105.333296,
    "province": "HỒNG NGỰ",
    "district": "Quan 7",
    "signalStrength": -57,
    "traffic": 361,
    "subscribers": 5328,
    "status": "warning",
    "uptime": 97.66,
    "lastUpdate": "2026-01-28T07:32:23.772Z",
    "alarms": 0,
    "capacity": 60
  },
  {
    "id": "BTS_HNU_235",
    "name": "Tram HỒNG NGỰ 235",
    "type": "5G",
    "lat": 10.792247,
    "lng": 105.401499,
    "province": "HỒNG NGỰ",
    "district": "Quan 10",
    "signalStrength": -72,
    "traffic": 487,
    "subscribers": 4868,
    "status": "active",
    "uptime": 96.96,
    "lastUpdate": "2026-01-28T08:07:55.347Z",
    "alarms": 1,
    "capacity": 70
  },
  {
    "id": "BTS_MTO_236",
    "name": "Tram MỸ THO 236",
    "type": "2G",
    "lat": 10.391166,
    "lng": 106.387549,
    "province": "MỸ THO",
    "district": "Quan 10",
    "signalStrength": -75,
    "traffic": 322,
    "subscribers": 3740,
    "status": "active",
    "uptime": 96.07,
    "lastUpdate": "2026-01-28T07:59:04.027Z",
    "alarms": 2,
    "capacity": 46
  },
  {
    "id": "BTS_GCG_237",
    "name": "Tram GÒ CÔNG 237",
    "type": "5G",
    "lat": 10.452639,
    "lng": 106.613206,
    "province": "GÒ CÔNG",
    "district": "Quan 5",
    "signalStrength": -55,
    "traffic": 398,
    "subscribers": 1702,
    "status": "critical",
    "uptime": 97.93,
    "lastUpdate": "2026-01-28T07:28:40.550Z",
    "alarms": 3,
    "capacity": 77
  },
  {
    "id": "BTS_TNG_238",
    "name": "Tram TAM NÔNG 238",
    "type": "5G",
    "lat": 10.669241,
    "lng": 105.533431,
    "province": "TAM NÔNG",
    "district": "Quan 6",
    "signalStrength": -57,
    "traffic": 86,
    "subscribers": 2660,
    "status": "active",
    "uptime": 99.98,
    "lastUpdate": "2026-01-28T07:17:32.526Z",
    "alarms": 3,
    "capacity": 64
  },
  {
    "id": "BTS_CGO_239",
    "name": "Tram CHỢ GẠO 239",
    "type": "3G",
    "lat": 10.394236,
    "lng": 106.400565,
    "province": "CHỢ GẠO",
    "district": "Quan 9",
    "signalStrength": -89,
    "traffic": 57,
    "subscribers": 845,
    "status": "active",
    "uptime": 99.38,
    "lastUpdate": "2026-01-28T07:42:32.093Z",
    "alarms": 2,
    "capacity": 64
  },
  {
    "id": "BTS_CTH_240",
    "name": "Tram CHÂU THÀNH 240",
    "type": "3G",
    "lat": 10.340593,
    "lng": 106.250753,
    "province": "CHÂU THÀNH",
    "district": "Quan 4",
    "signalStrength": -74,
    "traffic": 198,
    "subscribers": 4811,
    "status": "active",
    "uptime": 99.42,
    "lastUpdate": "2026-01-28T07:40:17.579Z",
    "alarms": 0,
    "capacity": 57
  },
  {
    "id": "BTS_GCG_241",
    "name": "Tram GÒ CÔNG 241",
    "type": "4G",
    "lat": 10.416875,
    "lng": 106.639891,
    "province": "GÒ CÔNG",
    "district": "Quan 1",
    "signalStrength": -77,
    "traffic": 93,
    "subscribers": 1684,
    "status": "offline",
    "uptime": 99.77,
    "lastUpdate": "2026-01-28T07:19:11.320Z",
    "alarms": 3,
    "capacity": 52
  },
  {
    "id": "BTS_TPC_242",
    "name": "Tram TÂN PHƯỚC 242",
    "type": "2G",
    "lat": 10.445018,
    "lng": 106.168983,
    "province": "TÂN PHƯỚC",
    "district": "Quan 9",
    "signalStrength": -72,
    "traffic": 338,
    "subscribers": 1617,
    "status": "active",
    "uptime": 98.01,
    "lastUpdate": "2026-01-28T08:05:36.819Z",
    "alarms": 4,
    "capacity": 71
  },
  {
    "id": "BTS_SDC_243",
    "name": "Tram SA ĐÉC 243",
    "type": "2G",
    "lat": 10.360714,
    "lng": 105.724086,
    "province": "SA ĐÉC",
    "district": "Quan 12",
    "signalStrength": -79,
    "traffic": 405,
    "subscribers": 919,
    "status": "active",
    "uptime": 98.28,
    "lastUpdate": "2026-01-28T08:02:12.172Z",
    "alarms": 4,
    "capacity": 45
  },
  {
    "id": "BTS_TPC_244",
    "name": "Tram TÂN PHƯỚC 244",
    "type": "4G",
    "lat": 10.454839,
    "lng": 106.329646,
    "province": "TÂN PHƯỚC",
    "district": "Quan 8",
    "signalStrength": -84,
    "traffic": 343,
    "subscribers": 4838,
    "status": "active",
    "uptime": 95.93,
    "lastUpdate": "2026-01-28T07:18:42.245Z",
    "alarms": 2,
    "capacity": 41
  },
  {
    "id": "BTS_SDC_245",
    "name": "Tram SA ĐÉC 245",
    "type": "4G",
    "lat": 10.224448,
    "lng": 105.687705,
    "province": "SA ĐÉC",
    "district": "Quan 4",
    "signalStrength": -58,
    "traffic": 543,
    "subscribers": 863,
    "status": "active",
    "uptime": 99.45,
    "lastUpdate": "2026-01-28T07:34:08.314Z",
    "alarms": 2,
    "capacity": 76
  },
  {
    "id": "BTS_CTH_246",
    "name": "Tram CHÂU THÀNH 246",
    "type": "2G",
    "lat": 10.43813,
    "lng": 106.343322,
    "province": "CHÂU THÀNH",
    "district": "Quan 12",
    "signalStrength": -93,
    "traffic": 311,
    "subscribers": 2852,
    "status": "active",
    "uptime": 97.38,
    "lastUpdate": "2026-01-28T08:06:46.522Z",
    "alarms": 2,
    "capacity": 69
  },
  {
    "id": "BTS_CLY_247",
    "name": "Tram CAI LẬY 247",
    "type": "3G",
    "lat": 10.429654,
    "lng": 106.17748,
    "province": "CAI LẬY",
    "district": "Quan 5",
    "signalStrength": -88,
    "traffic": 64,
    "subscribers": 2567,
    "status": "critical",
    "uptime": 99.62,
    "lastUpdate": "2026-01-28T07:32:10.792Z",
    "alarms": 1,
    "capacity": 75
  },
  {
    "id": "BTS_MTO_248",
    "name": "Tram MỸ THO 248",
    "type": "2G",
    "lat": 10.319865,
    "lng": 106.388719,
    "province": "MỸ THO",
    "district": "Quan 12",
    "signalStrength": -85,
    "traffic": 97,
    "subscribers": 1513,
    "status": "active",
    "uptime": 96.42,
    "lastUpdate": "2026-01-28T07:41:59.420Z",
    "alarms": 3,
    "capacity": 55
  },
  {
    "id": "BTS_MTO_249",
    "name": "Tram MỸ THO 249",
    "type": "4G",
    "lat": 10.356587,
    "lng": 106.231744,
    "province": "MỸ THO",
    "district": "Quan 4",
    "signalStrength": -77,
    "traffic": 385,
    "subscribers": 5187,
    "status": "active",
    "uptime": 97.12,
    "lastUpdate": "2026-01-28T07:55:38.939Z",
    "alarms": 0,
    "capacity": 59
  },
  {
    "id": "BTS_GCG_250",
    "name": "Tram GÒ CÔNG 250",
    "type": "3G",
    "lat": 10.442992,
    "lng": 106.755505,
    "province": "GÒ CÔNG",
    "district": "Quan 6",
    "signalStrength": -72,
    "traffic": 336,
    "subscribers": 4956,
    "status": "active",
    "uptime": 97.44,
    "lastUpdate": "2026-01-28T08:01:02.560Z",
    "alarms": 4,
    "capacity": 42
  },
  {
    "id": "BTS_MTH_251",
    "name": "Tram MỸ THỌ 251",
    "type": "4G",
    "lat": 10.459856,
    "lng": 105.707583,
    "province": "MỸ THỌ",
    "district": "Quan 4",
    "signalStrength": -77,
    "traffic": 63,
    "subscribers": 1438,
    "status": "warning",
    "uptime": 98.76,
    "lastUpdate": "2026-01-28T07:14:46.565Z",
    "alarms": 0,
    "capacity": 72
  },
  {
    "id": "BTS_GCG_252",
    "name": "Tram GÒ CÔNG 252",
    "type": "4G",
    "lat": 10.341863,
    "lng": 106.669426,
    "province": "GÒ CÔNG",
    "district": "Quan 1",
    "signalStrength": -61,
    "traffic": 355,
    "subscribers": 3276,
    "status": "active",
    "uptime": 99.52,
    "lastUpdate": "2026-01-28T07:46:00.968Z",
    "alarms": 2,
    "capacity": 74
  },
  {
    "id": "BTS_MTO_253",
    "name": "Tram MỸ THO 253",
    "type": "3G",
    "lat": 10.346004,
    "lng": 106.412158,
    "province": "MỸ THO",
    "district": "Quan 12",
    "signalStrength": -82,
    "traffic": 317,
    "subscribers": 4850,
    "status": "critical",
    "uptime": 97.57,
    "lastUpdate": "2026-01-28T07:20:02.507Z",
    "alarms": 2,
    "capacity": 52
  },
  {
    "id": "BTS_CTH_254",
    "name": "Tram CHÂU THÀNH 254",
    "type": "5G",
    "lat": 10.49101,
    "lng": 106.250623,
    "province": "CHÂU THÀNH",
    "district": "Quan 12",
    "signalStrength": -68,
    "traffic": 284,
    "subscribers": 2204,
    "status": "active",
    "uptime": 96.98,
    "lastUpdate": "2026-01-28T07:29:44.263Z",
    "alarms": 1,
    "capacity": 47
  },
  {
    "id": "BTS_CTH_255",
    "name": "Tram CHÂU THÀNH 255",
    "type": "4G",
    "lat": 10.48034,
    "lng": 106.301228,
    "province": "CHÂU THÀNH",
    "district": "Quan 11",
    "signalStrength": -64,
    "traffic": 536,
    "subscribers": 4208,
    "status": "active",
    "uptime": 98.47,
    "lastUpdate": "2026-01-28T07:38:35.575Z",
    "alarms": 0,
    "capacity": 64
  },
  {
    "id": "BTS_SDC_256",
    "name": "Tram SA ĐÉC 256",
    "type": "3G",
    "lat": 10.288412,
    "lng": 105.729181,
    "province": "SA ĐÉC",
    "district": "Quan 5",
    "signalStrength": -68,
    "traffic": 263,
    "subscribers": 1137,
    "status": "warning",
    "uptime": 99.98,
    "lastUpdate": "2026-01-28T07:19:32.116Z",
    "alarms": 0,
    "capacity": 69
  },
  {
    "id": "BTS_LVG_257",
    "name": "Tram LAI VUNG 257",
    "type": "5G",
    "lat": 10.36431,
    "lng": 105.710894,
    "province": "LAI VUNG",
    "district": "Quan 1",
    "signalStrength": -72,
    "traffic": 332,
    "subscribers": 2248,
    "status": "active",
    "uptime": 96.36,
    "lastUpdate": "2026-01-28T07:55:46.492Z",
    "alarms": 4,
    "capacity": 66
  },
  {
    "id": "BTS_TMI_258",
    "name": "Tram THÁP MƯỜI 258",
    "type": "3G",
    "lat": 10.617913,
    "lng": 105.73138,
    "province": "THÁP MƯỜI",
    "district": "Quan 2",
    "signalStrength": -77,
    "traffic": 392,
    "subscribers": 4998,
    "status": "active",
    "uptime": 98.69,
    "lastUpdate": "2026-01-28T07:39:52.866Z",
    "alarms": 0,
    "capacity": 67
  },
  {
    "id": "BTS_LVG_259",
    "name": "Tram LAI VUNG 259",
    "type": "4G",
    "lat": 10.303252,
    "lng": 105.721866,
    "province": "LAI VUNG",
    "district": "Quan 11",
    "signalStrength": -63,
    "traffic": 523,
    "subscribers": 651,
    "status": "active",
    "uptime": 98.79,
    "lastUpdate": "2026-01-28T08:10:12.529Z",
    "alarms": 3,
    "capacity": 79
  },
  {
    "id": "BTS_TPC_260",
    "name": "Tram TÂN PHƯỚC 260",
    "type": "2G",
    "lat": 10.462798,
    "lng": 106.268233,
    "province": "TÂN PHƯỚC",
    "district": "Quan 1",
    "signalStrength": -94,
    "traffic": 56,
    "subscribers": 1084,
    "status": "warning",
    "uptime": 95.06,
    "lastUpdate": "2026-01-28T07:34:00.988Z",
    "alarms": 1,
    "capacity": 79
  },
  {
    "id": "BTS_TBH_261",
    "name": "Tram THANH BÌNH 261",
    "type": "3G",
    "lat": 10.538992,
    "lng": 105.354374,
    "province": "THANH BÌNH",
    "district": "Quan 2",
    "signalStrength": -67,
    "traffic": 107,
    "subscribers": 1693,
    "status": "active",
    "uptime": 95.01,
    "lastUpdate": "2026-01-28T07:23:37.254Z",
    "alarms": 4,
    "capacity": 64
  },
  {
    "id": "BTS_CTH_262",
    "name": "Tram CHÂU THÀNH 262",
    "type": "5G",
    "lat": 10.378007,
    "lng": 106.261039,
    "province": "CHÂU THÀNH",
    "district": "Quan 6",
    "signalStrength": -77,
    "traffic": 322,
    "subscribers": 2039,
    "status": "active",
    "uptime": 98.33,
    "lastUpdate": "2026-01-28T07:38:13.291Z",
    "alarms": 4,
    "capacity": 55
  },
  {
    "id": "BTS_TBH_263",
    "name": "Tram THANH BÌNH 263",
    "type": "5G",
    "lat": 10.61618,
    "lng": 105.510224,
    "province": "THANH BÌNH",
    "district": "Quan 6",
    "signalStrength": -61,
    "traffic": 293,
    "subscribers": 704,
    "status": "offline",
    "uptime": 98.83,
    "lastUpdate": "2026-01-28T07:27:27.332Z",
    "alarms": 0,
    "capacity": 69
  },
  {
    "id": "BTS_LVG_264",
    "name": "Tram LAI VUNG 264",
    "type": "4G",
    "lat": 10.386451,
    "lng": 105.686811,
    "province": "LAI VUNG",
    "district": "Quan 1",
    "signalStrength": -83,
    "traffic": 515,
    "subscribers": 597,
    "status": "active",
    "uptime": 97.29,
    "lastUpdate": "2026-01-28T07:42:37.968Z",
    "alarms": 0,
    "capacity": 52
  },
  {
    "id": "BTS_CBE_265",
    "name": "Tram CÁI BÈ 265",
    "type": "2G",
    "lat": 10.420277,
    "lng": 105.840527,
    "province": "CÁI BÈ",
    "district": "Quan 10",
    "signalStrength": -91,
    "traffic": 417,
    "subscribers": 575,
    "status": "warning",
    "uptime": 99.85,
    "lastUpdate": "2026-01-28T07:41:59.820Z",
    "alarms": 0,
    "capacity": 45
  },
  {
    "id": "BTS_TPC_266",
    "name": "Tram TÂN PHƯỚC 266",
    "type": "3G",
    "lat": 10.551638,
    "lng": 106.324828,
    "province": "TÂN PHƯỚC",
    "district": "Quan 12",
    "signalStrength": -77,
    "traffic": 459,
    "subscribers": 5415,
    "status": "warning",
    "uptime": 99.62,
    "lastUpdate": "2026-01-28T07:47:14.426Z",
    "alarms": 0,
    "capacity": 64
  },
  {
    "id": "BTS_TBH_267",
    "name": "Tram THANH BÌNH 267",
    "type": "2G",
    "lat": 10.670757,
    "lng": 105.558282,
    "province": "THANH BÌNH",
    "district": "Quan 12",
    "signalStrength": -71,
    "traffic": 458,
    "subscribers": 1567,
    "status": "active",
    "uptime": 95.18,
    "lastUpdate": "2026-01-28T07:41:19.912Z",
    "alarms": 4,
    "capacity": 46
  },
  {
    "id": "BTS_TMI_268",
    "name": "Tram THÁP MƯỜI 268",
    "type": "2G",
    "lat": 10.41807,
    "lng": 105.677567,
    "province": "THÁP MƯỜI",
    "district": "Quan 12",
    "signalStrength": -78,
    "traffic": 242,
    "subscribers": 5259,
    "status": "active",
    "uptime": 97.69,
    "lastUpdate": "2026-01-28T08:09:28.249Z",
    "alarms": 4,
    "capacity": 50
  },
  {
    "id": "BTS_GCT_269",
    "name": "Tram GÒ CÔNG TÂY 269",
    "type": "3G",
    "lat": 10.206575,
    "lng": 106.800701,
    "province": "GÒ CÔNG TÂY",
    "district": "Quan 3",
    "signalStrength": -86,
    "traffic": 532,
    "subscribers": 2566,
    "status": "warning",
    "uptime": 95.29,
    "lastUpdate": "2026-01-28T07:39:11.709Z",
    "alarms": 0,
    "capacity": 53
  },
  {
    "id": "BTS_CBE_270",
    "name": "Tram CÁI BÈ 270",
    "type": "2G",
    "lat": 10.393663,
    "lng": 106.024911,
    "province": "CÁI BÈ",
    "district": "Quan 5",
    "signalStrength": -81,
    "traffic": 509,
    "subscribers": 5423,
    "status": "active",
    "uptime": 98.92,
    "lastUpdate": "2026-01-28T08:03:08.823Z",
    "alarms": 2,
    "capacity": 45
  },
  {
    "id": "BTS_HNU_271",
    "name": "Tram HỒNG NGỰ 271",
    "type": "2G",
    "lat": 10.920813,
    "lng": 105.591171,
    "province": "HỒNG NGỰ",
    "district": "Quan 9",
    "signalStrength": -91,
    "traffic": 430,
    "subscribers": 4974,
    "status": "critical",
    "uptime": 95.03,
    "lastUpdate": "2026-01-28T07:32:02.164Z",
    "alarms": 0,
    "capacity": 69
  },
  {
    "id": "BTS_GCT_272",
    "name": "Tram GÒ CÔNG TÂY 272",
    "type": "2G",
    "lat": 10.204872,
    "lng": 106.792245,
    "province": "GÒ CÔNG TÂY",
    "district": "Quan 4",
    "signalStrength": -77,
    "traffic": 108,
    "subscribers": 4429,
    "status": "active",
    "uptime": 97.26,
    "lastUpdate": "2026-01-28T07:25:16.506Z",
    "alarms": 3,
    "capacity": 67
  },
  {
    "id": "BTS_MTO_273",
    "name": "Tram MỸ THO 273",
    "type": "5G",
    "lat": 10.371095,
    "lng": 106.27081,
    "province": "MỸ THO",
    "district": "Quan 12",
    "signalStrength": -78,
    "traffic": 477,
    "subscribers": 2385,
    "status": "critical",
    "uptime": 96.59,
    "lastUpdate": "2026-01-28T08:07:36.589Z",
    "alarms": 2,
    "capacity": 54
  },
  {
    "id": "BTS_CLH_274",
    "name": "Tram CAO LÃNH 274",
    "type": "2G",
    "lat": 10.639011,
    "lng": 105.659491,
    "province": "CAO LÃNH",
    "district": "Quan 4",
    "signalStrength": -93,
    "traffic": 200,
    "subscribers": 4865,
    "status": "critical",
    "uptime": 95.99,
    "lastUpdate": "2026-01-28T07:12:32.615Z",
    "alarms": 2,
    "capacity": 44
  },
  {
    "id": "BTS_CTH_275",
    "name": "Tram CHÂU THÀNH 275",
    "type": "4G",
    "lat": 10.498353,
    "lng": 106.388153,
    "province": "CHÂU THÀNH",
    "district": "Quan 9",
    "signalStrength": -67,
    "traffic": 179,
    "subscribers": 4774,
    "status": "warning",
    "uptime": 97.24,
    "lastUpdate": "2026-01-28T08:09:35.422Z",
    "alarms": 3,
    "capacity": 75
  },
  {
    "id": "BTS_TBH_276",
    "name": "Tram THANH BÌNH 276",
    "type": "3G",
    "lat": 10.729941,
    "lng": 105.536878,
    "province": "THANH BÌNH",
    "district": "Quan 4",
    "signalStrength": -93,
    "traffic": 517,
    "subscribers": 1694,
    "status": "warning",
    "uptime": 99.93,
    "lastUpdate": "2026-01-28T07:12:57.513Z",
    "alarms": 1,
    "capacity": 60
  },
  {
    "id": "BTS_TPC_277",
    "name": "Tram TÂN PHƯỚC 277",
    "type": "5G",
    "lat": 10.542063,
    "lng": 106.113221,
    "province": "TÂN PHƯỚC",
    "district": "Quan 1",
    "signalStrength": -51,
    "traffic": 521,
    "subscribers": 876,
    "status": "warning",
    "uptime": 97.69,
    "lastUpdate": "2026-01-28T07:45:16.749Z",
    "alarms": 0,
    "capacity": 70
  },
  {
    "id": "BTS_CGO_278",
    "name": "Tram CHỢ GẠO 278",
    "type": "5G",
    "lat": 10.31196,
    "lng": 106.360814,
    "province": "CHỢ GẠO",
    "district": "Quan 1",
    "signalStrength": -51,
    "traffic": 532,
    "subscribers": 4317,
    "status": "offline",
    "uptime": 99,
    "lastUpdate": "2026-01-28T07:28:24.456Z",
    "alarms": 2,
    "capacity": 79
  },
  {
    "id": "BTS_GCT_279",
    "name": "Tram GÒ CÔNG TÂY 279",
    "type": "5G",
    "lat": 10.209439,
    "lng": 106.79253,
    "province": "GÒ CÔNG TÂY",
    "district": "Quan 1",
    "signalStrength": -54,
    "traffic": 240,
    "subscribers": 1256,
    "status": "active",
    "uptime": 97.44,
    "lastUpdate": "2026-01-28T07:45:52.485Z",
    "alarms": 4,
    "capacity": 50
  },
  {
    "id": "BTS_CTH_280",
    "name": "Tram CHÂU THÀNH 280",
    "type": "5G",
    "lat": 10.336089,
    "lng": 106.191914,
    "province": "CHÂU THÀNH",
    "district": "Quan 10",
    "signalStrength": -60,
    "traffic": 450,
    "subscribers": 4163,
    "status": "critical",
    "uptime": 98.88,
    "lastUpdate": "2026-01-28T07:55:34.770Z",
    "alarms": 1,
    "capacity": 43
  },
  {
    "id": "BTS_TMI_281",
    "name": "Tram THÁP MƯỜI 281",
    "type": "3G",
    "lat": 10.730036,
    "lng": 105.87814,
    "province": "THÁP MƯỜI",
    "district": "Quan 3",
    "signalStrength": -69,
    "traffic": 50,
    "subscribers": 4472,
    "status": "warning",
    "uptime": 95.13,
    "lastUpdate": "2026-01-28T08:05:23.240Z",
    "alarms": 4,
    "capacity": 77
  },
  {
    "id": "BTS_MTH_282",
    "name": "Tram MỸ THỌ 282",
    "type": "3G",
    "lat": 10.379273,
    "lng": 105.811811,
    "province": "MỸ THỌ",
    "district": "Quan 11",
    "signalStrength": -78,
    "traffic": 320,
    "subscribers": 2487,
    "status": "active",
    "uptime": 96,
    "lastUpdate": "2026-01-28T07:34:10.980Z",
    "alarms": 3,
    "capacity": 42
  },
  {
    "id": "BTS_GCG_283",
    "name": "Tram GÒ CÔNG 283",
    "type": "2G",
    "lat": 10.456721,
    "lng": 106.805649,
    "province": "GÒ CÔNG",
    "district": "Quan 7",
    "signalStrength": -72,
    "traffic": 296,
    "subscribers": 5027,
    "status": "active",
    "uptime": 95.27,
    "lastUpdate": "2026-01-28T07:49:25.175Z",
    "alarms": 0,
    "capacity": 48
  },
  {
    "id": "BTS_GCG_284",
    "name": "Tram GÒ CÔNG 284",
    "type": "5G",
    "lat": 10.3176,
    "lng": 106.785104,
    "province": "GÒ CÔNG",
    "district": "Quan 1",
    "signalStrength": -74,
    "traffic": 350,
    "subscribers": 2879,
    "status": "active",
    "uptime": 99.59,
    "lastUpdate": "2026-01-28T07:14:37.988Z",
    "alarms": 4,
    "capacity": 41
  },
  {
    "id": "BTS_CLH_285",
    "name": "Tram CAO LÃNH 285",
    "type": "4G",
    "lat": 10.64923,
    "lng": 105.732172,
    "province": "CAO LÃNH",
    "district": "Quan 6",
    "signalStrength": -81,
    "traffic": 506,
    "subscribers": 4621,
    "status": "warning",
    "uptime": 97,
    "lastUpdate": "2026-01-28T07:25:28.351Z",
    "alarms": 3,
    "capacity": 52
  },
  {
    "id": "BTS_LVG_286",
    "name": "Tram LAI VUNG 286",
    "type": "3G",
    "lat": 10.177536,
    "lng": 105.691707,
    "province": "LAI VUNG",
    "district": "Quan 7",
    "signalStrength": -90,
    "traffic": 225,
    "subscribers": 3886,
    "status": "active",
    "uptime": 96.94,
    "lastUpdate": "2026-01-28T07:59:10.681Z",
    "alarms": 4,
    "capacity": 67
  },
  {
    "id": "BTS_TNG_287",
    "name": "Tram TAM NÔNG 287",
    "type": "2G",
    "lat": 10.795566,
    "lng": 105.657304,
    "province": "TAM NÔNG",
    "district": "Quan 11",
    "signalStrength": -96,
    "traffic": 426,
    "subscribers": 5157,
    "status": "critical",
    "uptime": 96.74,
    "lastUpdate": "2026-01-28T07:11:01.252Z",
    "alarms": 2,
    "capacity": 79
  },
  {
    "id": "BTS_TMI_288",
    "name": "Tram THÁP MƯỜI 288",
    "type": "3G",
    "lat": 10.630419,
    "lng": 105.869048,
    "province": "THÁP MƯỜI",
    "district": "Quan 10",
    "signalStrength": -70,
    "traffic": 461,
    "subscribers": 5158,
    "status": "active",
    "uptime": 95.31,
    "lastUpdate": "2026-01-28T07:30:41.191Z",
    "alarms": 2,
    "capacity": 62
  },
  {
    "id": "BTS_MTH_289",
    "name": "Tram MỸ THỌ 289",
    "type": "5G",
    "lat": 10.488551,
    "lng": 105.833785,
    "province": "MỸ THỌ",
    "district": "Quan 4",
    "signalStrength": -53,
    "traffic": 117,
    "subscribers": 4758,
    "status": "active",
    "uptime": 98.85,
    "lastUpdate": "2026-01-28T07:40:00.535Z",
    "alarms": 1,
    "capacity": 43
  },
  {
    "id": "BTS_CTH_290",
    "name": "Tram CHÂU THÀNH 290",
    "type": "3G",
    "lat": 10.460737,
    "lng": 106.386475,
    "province": "CHÂU THÀNH",
    "district": "Quan 8",
    "signalStrength": -87,
    "traffic": 304,
    "subscribers": 3409,
    "status": "offline",
    "uptime": 95.04,
    "lastUpdate": "2026-01-28T07:36:52.556Z",
    "alarms": 2,
    "capacity": 78
  },
  {
    "id": "BTS_TPC_291",
    "name": "Tram TÂN PHƯỚC 291",
    "type": "3G",
    "lat": 10.429433,
    "lng": 106.216339,
    "province": "TÂN PHƯỚC",
    "district": "Quan 1",
    "signalStrength": -72,
    "traffic": 424,
    "subscribers": 3795,
    "status": "active",
    "uptime": 98.29,
    "lastUpdate": "2026-01-28T08:07:27.141Z",
    "alarms": 2,
    "capacity": 55
  },
  {
    "id": "BTS_MTH_292",
    "name": "Tram MỸ THỌ 292",
    "type": "3G",
    "lat": 10.395916,
    "lng": 105.749507,
    "province": "MỸ THỌ",
    "district": "Quan 7",
    "signalStrength": -77,
    "traffic": 460,
    "subscribers": 4383,
    "status": "active",
    "uptime": 96.62,
    "lastUpdate": "2026-01-28T08:08:57.604Z",
    "alarms": 0,
    "capacity": 52
  },
  {
    "id": "BTS_GCT_293",
    "name": "Tram GÒ CÔNG TÂY 293",
    "type": "3G",
    "lat": 10.218369,
    "lng": 106.78791,
    "province": "GÒ CÔNG TÂY",
    "district": "Quan 10",
    "signalStrength": -86,
    "traffic": 160,
    "subscribers": 1291,
    "status": "offline",
    "uptime": 95.52,
    "lastUpdate": "2026-01-28T07:21:25.057Z",
    "alarms": 3,
    "capacity": 65
  },
  {
    "id": "BTS_MTO_294",
    "name": "Tram MỸ THO 294",
    "type": "5G",
    "lat": 10.345618,
    "lng": 106.34956,
    "province": "MỸ THO",
    "district": "Quan 7",
    "signalStrength": -60,
    "traffic": 258,
    "subscribers": 5212,
    "status": "active",
    "uptime": 98.48,
    "lastUpdate": "2026-01-28T07:42:05.262Z",
    "alarms": 2,
    "capacity": 61
  },
  {
    "id": "BTS_CBE_295",
    "name": "Tram CÁI BÈ 295",
    "type": "5G",
    "lat": 10.431343,
    "lng": 106.022161,
    "province": "CÁI BÈ",
    "district": "Quan 6",
    "signalStrength": -58,
    "traffic": 281,
    "subscribers": 5097,
    "status": "active",
    "uptime": 95.17,
    "lastUpdate": "2026-01-28T07:24:36.407Z",
    "alarms": 4,
    "capacity": 48
  },
  {
    "id": "BTS_TNG_296",
    "name": "Tram TAM NÔNG 296",
    "type": "3G",
    "lat": 10.77444,
    "lng": 105.653568,
    "province": "TAM NÔNG",
    "district": "Quan 3",
    "signalStrength": -74,
    "traffic": 261,
    "subscribers": 3712,
    "status": "active",
    "uptime": 97.08,
    "lastUpdate": "2026-01-28T07:17:12.402Z",
    "alarms": 4,
    "capacity": 59
  },
  {
    "id": "BTS_MTO_297",
    "name": "Tram MỸ THO 297",
    "type": "5G",
    "lat": 10.395513,
    "lng": 106.317398,
    "province": "MỸ THO",
    "district": "Quan 1",
    "signalStrength": -64,
    "traffic": 226,
    "subscribers": 1314,
    "status": "active",
    "uptime": 98.76,
    "lastUpdate": "2026-01-28T07:25:39.687Z",
    "alarms": 4,
    "capacity": 76
  },
  {
    "id": "BTS_CLY_298",
    "name": "Tram CAI LẬY 298",
    "type": "4G",
    "lat": 10.46112,
    "lng": 106.190899,
    "province": "CAI LẬY",
    "district": "Quan 10",
    "signalStrength": -62,
    "traffic": 503,
    "subscribers": 1838,
    "status": "critical",
    "uptime": 99.92,
    "lastUpdate": "2026-01-28T07:44:28.744Z",
    "alarms": 0,
    "capacity": 77
  },
  {
    "id": "BTS_TNG_299",
    "name": "Tram TAM NÔNG 299",
    "type": "2G",
    "lat": 10.811865,
    "lng": 105.471825,
    "province": "TAM NÔNG",
    "district": "Quan 6",
    "signalStrength": -77,
    "traffic": 164,
    "subscribers": 3750,
    "status": "active",
    "uptime": 99.69,
    "lastUpdate": "2026-01-28T07:43:24.087Z",
    "alarms": 3,
    "capacity": 57
  },
  {
    "id": "BTS_TPC_300",
    "name": "Tram TÂN PHƯỚC 300",
    "type": "4G",
    "lat": 10.41147,
    "lng": 106.270304,
    "province": "TÂN PHƯỚC",
    "district": "Quan 8",
    "signalStrength": -85,
    "traffic": 536,
    "subscribers": 2697,
    "status": "active",
    "uptime": 98.54,
    "lastUpdate": "2026-01-28T07:18:35.877Z",
    "alarms": 1,
    "capacity": 76
  }
]